{
  "type": "FeatureCollection",
  "features": [
    {
      "type": "Feature",
      "id": "667",
      "geometry": {
        "type": "Point",
        "coordinates": [
          -11.06684,
          7.449253
        ]
      },
      "properties": {
        "cell": "zygote",
        "label": "zygote",
        "level": 4,
        "pos": "-20566.664835963726,12275.694954924165",
        "weight": "265.3383278183109"
      }
    },
    {
      "type": "Feature",
      "id": "5",
      "geometry": {
        "type": "Point",
        "coordinates": [
          1.734096,
          -3.531027
        ]
      },
      "properties": {
        "cell": "P0A",
        "label": "P0A",
        "level": 3,
        "pos": "4051.072760857207,-10343.918075357482",
        "weight": "401.25764635983387"
      }
    },
    {
      "type": "Feature",
      "id": "4",
      "geometry": {
        "type": "Point",
        "coordinates": [
          -23.822875,
          17.35546
        ]
      },
      "properties": {
        "cell": "P1",
        "label": "P1",
        "level": 3,
        "pos": "-45098.03836296209,33154.57176928667",
        "weight": "369.8813944987218"
      }
    },
    {
      "type": "Feature",
      "id": "666",
      "geometry": {
        "type": "Point",
        "coordinates": [
          -8.003453,
          -18.462619
        ]
      },
      "properties": {
        "cell": "ABA",
        "label": "ABA",
        "level": 3,
        "pos": "-14675.401223955942,-41707.930974851566",
        "weight": "406.45567827916324"
      }
    },
    {
      "type": "Feature",
      "id": "424",
      "geometry": {
        "type": "Point",
        "coordinates": [
          20.161984,
          -0.209941
        ]
      },
      "properties": {
        "cell": "ABP",
        "label": "ABP",
        "level": 3,
        "pos": "39490.099657794446,-3512.310682850258",
        "weight": "397.14832110825563"
      }
    },
    {
      "type": "Feature",
      "id": "107",
      "geometry": {
        "type": "Point",
        "coordinates": [
          -20.798445,
          30.376082
        ]
      },
      "properties": {
        "cell": "EMS",
        "label": "EMS",
        "level": 3,
        "pos": "-39281.7000491613,62511.1774414739",
        "weight": "375.33162862967407"
      }
    },
    {
      "type": "Feature",
      "id": "3",
      "geometry": {
        "type": "Point",
        "coordinates": [
          -38.302615,
          11.977885
        ]
      },
      "properties": {
        "cell": "P2",
        "label": "P2",
        "level": 3,
        "pos": "-72944.31217458239,21723.01390131645",
        "weight": "387.9075674026117"
      }
    },
    {
      "type": "Feature",
      "id": "665",
      "geometry": {
        "type": "Point",
        "coordinates": [
          -21.212652,
          -22.584635
        ]
      },
      "properties": {
        "cell": "ABAL",
        "label": "ABAL",
        "level": 3,
        "pos": "-40078.266343482086,-50758.164301036915",
        "weight": "343.53601754508077"
      }
    },
    {
      "type": "Feature",
      "id": "531",
      "geometry": {
        "type": "Point",
        "coordinates": [
          -0.88338,
          -27.416518
        ]
      },
      "properties": {
        "cell": "ABAR",
        "label": "ABAR",
        "level": 3,
        "pos": "-982.6526430063448,-61722.39323878678",
        "weight": "335.55124388268234"
      }
    },
    {
      "type": "Feature",
      "id": "423",
      "geometry": {
        "type": "Point",
        "coordinates": [
          25.358104,
          18.119228
        ]
      },
      "properties": {
        "cell": "ABPL",
        "label": "ABPL",
        "level": 3,
        "pos": "49482.86141647541,34802.98564990106",
        "weight": "334.3801099665669"
      }
    },
    {
      "type": "Feature",
      "id": "308",
      "geometry": {
        "type": "Point",
        "coordinates": [
          35.005513,
          -12.897125
        ]
      },
      "properties": {
        "cell": "ABPR",
        "label": "ABPR",
        "level": 3,
        "pos": "68035.98102979649,-29819.570876552498",
        "weight": "385.74784893252496"
      }
    },
    {
      "type": "Feature",
      "id": "117",
      "geometry": {
        "type": "Point",
        "coordinates": [
          -28.03785,
          34.171236
        ]
      },
      "properties": {
        "cell": "E",
        "label": "E",
        "level": 4,
        "pos": "-53203.93732000047,71741.26379277553",
        "weight": "299.53873416094325"
      }
    },
    {
      "type": "Feature",
      "id": "97",
      "geometry": {
        "type": "Point",
        "coordinates": [
          -12.794263,
          39.489894
        ]
      },
      "properties": {
        "cell": "MS",
        "label": "MS",
        "level": 3,
        "pos": "-23888.70362370085,85411.31815036913",
        "weight": "350.3917304282712"
      }
    },
    {
      "type": "Feature",
      "id": "183",
      "geometry": {
        "type": "Point",
        "coordinates": [
          -46.737509,
          14.385751
        ]
      },
      "properties": {
        "cell": "C",
        "label": "C",
        "level": 3,
        "pos": "-89165.61875947418,26807.115868703044",
        "weight": "417.02537674136"
      }
    },
    {
      "type": "Feature",
      "id": "2",
      "geometry": {
        "type": "Point",
        "coordinates": [
          -44.283554,
          5.5182
        ]
      },
      "properties": {
        "cell": "P3",
        "label": "P3",
        "level": 3,
        "pos": "-84446.3710166554,8280.364485661186",
        "weight": "377.91272592614354"
      }
    },
    {
      "type": "Feature",
      "id": "664",
      "geometry": {
        "type": "Point",
        "coordinates": [
          -30.413178,
          -31.314794
        ]
      },
      "properties": {
        "cell": "ABALA",
        "label": "ABALA",
        "level": 3,
        "pos": "-57771.98139912207,-70920.29051858868",
        "weight": "320.0160675115433"
      }
    },
    {
      "type": "Feature",
      "id": "599",
      "geometry": {
        "type": "Point",
        "coordinates": [
          -25.574638,
          -19.05212
        ]
      },
      "properties": {
        "cell": "ABALP",
        "label": "ABALP",
        "level": 4,
        "pos": "-48466.88577665564,-42987.72438333003",
        "weight": "309.5329106667296"
      }
    },
    {
      "type": "Feature",
      "id": "530",
      "geometry": {
        "type": "Point",
        "coordinates": [
          3.61882,
          -33.952171
        ]
      },
      "properties": {
        "cell": "ABARA",
        "label": "ABARA",
        "level": 3,
        "pos": "7675.624366317346,-77359.15765357096",
        "weight": "363.3576780317289"
      }
    },
    {
      "type": "Feature",
      "id": "463",
      "geometry": {
        "type": "Point",
        "coordinates": [
          4.725772,
          -26.210562
        ]
      },
      "properties": {
        "cell": "ABARP",
        "label": "ABARP",
        "level": 4,
        "pos": "9804.424349064706,-58944.62459237768",
        "weight": "311.7810813688932"
      }
    },
    {
      "type": "Feature",
      "id": "422",
      "geometry": {
        "type": "Point",
        "coordinates": [
          23.475548,
          25.120589
        ]
      },
      "properties": {
        "cell": "ABPLA",
        "label": "ABPLA",
        "level": 3,
        "pos": "45862.47857095885,50297.20759103069",
        "weight": "376.8996794250619"
      }
    },
    {
      "type": "Feature",
      "id": "373",
      "geometry": {
        "type": "Point",
        "coordinates": [
          37.616078,
          24.498051
        ]
      },
      "properties": {
        "cell": "ABPLP",
        "label": "ABPLP",
        "level": 4,
        "pos": "73056.41497556194,48887.35550613228",
        "weight": "294.51577252315536"
      }
    },
    {
      "type": "Feature",
      "id": "307",
      "geometry": {
        "type": "Point",
        "coordinates": [
          45.320186,
          -11.076695
        ]
      },
      "properties": {
        "cell": "ABPRA",
        "label": "ABPRA",
        "level": 3,
        "pos": "87872.32652534933,-25993.7976730806",
        "weight": "357.4822494580113"
      }
    },
    {
      "type": "Feature",
      "id": "249",
      "geometry": {
        "type": "Point",
        "coordinates": [
          43.615997,
          -22.368646
        ]
      },
      "properties": {
        "cell": "ABPRP",
        "label": "ABPRP",
        "level": 3,
        "pos": "84594.97421743108,-50277.6582646564",
        "weight": "352.0599118228514"
      }
    },
    {
      "type": "Feature",
      "id": "116",
      "geometry": {
        "type": "Point",
        "coordinates": [
          -32.312301,
          37.645165
        ]
      },
      "properties": {
        "cell": "EA",
        "label": "EA",
        "level": 3,
        "pos": "-61424.22343919062,80560.7921445276",
        "weight": "459.2797065850378"
      }
    },
    {
      "type": "Feature",
      "id": "106",
      "geometry": {
        "type": "Point",
        "coordinates": [
          -31.909674,
          34.342435
        ]
      },
      "properties": {
        "cell": "EP",
        "label": "EP",
        "level": 3,
        "pos": "-60649.917625680326,72167.04722701802",
        "weight": "478.2929221424888"
      }
    },
    {
      "type": "Feature",
      "id": "96",
      "geometry": {
        "type": "Point",
        "coordinates": [
          -5.813407,
          44.845693
        ]
      },
      "properties": {
        "cell": "MSA",
        "label": "MSA",
        "level": 3,
        "pos": "-10463.683078541122,100279.84969548581",
        "weight": "384.40078578570325"
      }
    },
    {
      "type": "Feature",
      "id": "50",
      "geometry": {
        "type": "Point",
        "coordinates": [
          -16.03572,
          44.340131
        ]
      },
      "properties": {
        "cell": "MSP",
        "label": "MSP",
        "level": 3,
        "pos": "-30122.41207163443,98820.42633607854",
        "weight": "379.86843158338957"
      }
    },
    {
      "type": "Feature",
      "id": "182",
      "geometry": {
        "type": "Point",
        "coordinates": [
          -55.964981,
          14.285436
        ]
      },
      "properties": {
        "cell": "CA",
        "label": "CA",
        "level": 3,
        "pos": "-106911.15345870536,26594.27941733968",
        "weight": "386.57635118072886"
      }
    },
    {
      "type": "Feature",
      "id": "159",
      "geometry": {
        "type": "Point",
        "coordinates": [
          -45.525952,
          17.502691
        ]
      },
      "properties": {
        "cell": "CP",
        "label": "CP",
        "level": 3,
        "pos": "-86835.652279584,33471.791294325645",
        "weight": "396.1257600491351"
      }
    },
    {
      "type": "Feature",
      "id": "136",
      "geometry": {
        "type": "Point",
        "coordinates": [
          -49.715114,
          -0.910818
        ]
      },
      "properties": {
        "cell": "D",
        "label": "D",
        "level": 3,
        "pos": "-94891.91143825221,-4953.14668263915",
        "weight": "481.9592354584005"
      }
    },
    {
      "type": "Feature",
      "id": "1",
      "geometry": {
        "type": "Point",
        "coordinates": [
          -45.52383,
          6.605592
        ]
      },
      "properties": {
        "cell": "P4",
        "label": "P4",
        "level": 2,
        "pos": "-86831.56992966526,10528.269847379126",
        "weight": "770.2803188841891"
      }
    },
    {
      "type": "Feature",
      "id": "663",
      "geometry": {
        "type": "Point",
        "coordinates": [
          -36.862034,
          -38.905525
        ]
      },
      "properties": {
        "cell": "ABALAA",
        "label": "ABALAA",
        "level": 3,
        "pos": "-70173.90270546354,-90022.70562965497",
        "weight": "361.64295494476426"
      }
    },
    {
      "type": "Feature",
      "id": "633",
      "geometry": {
        "type": "Point",
        "coordinates": [
          -29.188283,
          -34.358129
        ]
      },
      "properties": {
        "cell": "ABALAP",
        "label": "ABALAP",
        "level": 3,
        "pos": "-55416.36000666669,-78367.6123895401",
        "weight": "344.64694478444517"
      }
    },
    {
      "type": "Feature",
      "id": "598",
      "geometry": {
        "type": "Point",
        "coordinates": [
          -22.756691,
          -13.31924
        ]
      },
      "properties": {
        "cell": "ABALPA",
        "label": "ABALPA",
        "level": 3,
        "pos": "-43047.635304153606,-30710.51168565473",
        "weight": "439.9423987006719"
      }
    },
    {
      "type": "Feature",
      "id": "565",
      "geometry": {
        "type": "Point",
        "coordinates": [
          -32.946952,
          -20.295165
        ]
      },
      "properties": {
        "cell": "ABALPP",
        "label": "ABALPP",
        "level": 3,
        "pos": "-62644.73322209669,-45701.4748476833",
        "weight": "457.3386670123698"
      }
    },
    {
      "type": "Feature",
      "id": "529",
      "geometry": {
        "type": "Point",
        "coordinates": [
          -0.76775,
          -37.071866
        ]
      },
      "properties": {
        "cell": "ABARAA",
        "label": "ABARAA",
        "level": 3,
        "pos": "-760.283262509295,-85239.59091778929",
        "weight": "411.79179999706014"
      }
    },
    {
      "type": "Feature",
      "id": "497",
      "geometry": {
        "type": "Point",
        "coordinates": [
          9.702202,
          -40.062303
        ]
      },
      "properties": {
        "cell": "ABARAP",
        "label": "ABARAP",
        "level": 3,
        "pos": "19374.68701727794,-93103.85446558583",
        "weight": "414.45072823328263"
      }
    },
    {
      "type": "Feature",
      "id": "462",
      "geometry": {
        "type": "Point",
        "coordinates": [
          3.114348,
          -24.695661
        ]
      },
      "properties": {
        "cell": "ABARPA",
        "label": "ABARPA",
        "level": 3,
        "pos": "6705.457414904803,-55495.595529797894",
        "weight": "461.07330489856554"
      }
    },
    {
      "type": "Feature",
      "id": "441",
      "geometry": {
        "type": "Point",
        "coordinates": [
          10.596588,
          -23.909802
        ]
      },
      "properties": {
        "cell": "ABARPP",
        "label": "ABARPP",
        "level": 3,
        "pos": "21094.704508746996,-53723.05380695181",
        "weight": "460.5457913469437"
      }
    },
    {
      "type": "Feature",
      "id": "421",
      "geometry": {
        "type": "Point",
        "coordinates": [
          18.141491,
          24.02357
        ]
      },
      "properties": {
        "cell": "ABPLAA",
        "label": "ABPLAA",
        "level": 3,
        "pos": "35604.452174390695,47817.50254955374",
        "weight": "441.73351602832406"
      }
    },
    {
      "type": "Feature",
      "id": "399",
      "geometry": {
        "type": "Point",
        "coordinates": [
          26.41758,
          33.364649
        ]
      },
      "properties": {
        "cell": "ABPLAP",
        "label": "ABPLAP",
        "level": 3,
        "pos": "51520.356671623995,69746.66705858178",
        "weight": "438.7432430572096"
      }
    },
    {
      "type": "Feature",
      "id": "372",
      "geometry": {
        "type": "Point",
        "coordinates": [
          40.069889,
          18.16847
        ]
      },
      "properties": {
        "cell": "ABPLPA",
        "label": "ABPLPA",
        "level": 3,
        "pos": "77775.37605282875,34909.51433981861",
        "weight": "444.48784884356013"
      }
    },
    {
      "type": "Feature",
      "id": "340",
      "geometry": {
        "type": "Point",
        "coordinates": [
          47.28685,
          27.911868
        ]
      },
      "properties": {
        "cell": "ABPLPP",
        "label": "ABPLPP",
        "level": 3,
        "pos": "91654.46161218126,56710.61140212107",
        "weight": "438.1118488623047"
      }
    },
    {
      "type": "Feature",
      "id": "306",
      "geometry": {
        "type": "Point",
        "coordinates": [
          44.761568,
          -7.128301
        ]
      },
      "properties": {
        "cell": "ABPRAA",
        "label": "ABPRAA",
        "level": 3,
        "pos": "86798.03566248289,-17772.03234598893",
        "weight": "408.7600507070112"
      }
    },
    {
      "type": "Feature",
      "id": "275",
      "geometry": {
        "type": "Point",
        "coordinates": [
          54.836392,
          -9.743814
        ]
      },
      "properties": {
        "cell": "ABPRAP",
        "label": "ABPRAP",
        "level": 3,
        "pos": "106173.12799815339,-23207.93036732485",
        "weight": "411.65484790717835"
      }
    },
    {
      "type": "Feature",
      "id": "248",
      "geometry": {
        "type": "Point",
        "coordinates": [
          42.453079,
          -29.118824
        ]
      },
      "properties": {
        "cell": "ABPRPA",
        "label": "ABPRPA",
        "level": 3,
        "pos": "82358.53652833885,-65695.80332570964",
        "weight": "399.42530829456035"
      }
    },
    {
      "type": "Feature",
      "id": "215",
      "geometry": {
        "type": "Point",
        "coordinates": [
          51.928517,
          -26.16408
        ]
      },
      "properties": {
        "cell": "ABPRPP",
        "label": "ABPRPP",
        "level": 3,
        "pos": "100580.94290629782,-58838.142491137456",
        "weight": "396.5741646373558"
      }
    },
    {
      "type": "Feature",
      "id": "662",
      "geometry": {
        "type": "Point",
        "coordinates": [
          -36.142718,
          -42.231875
        ]
      },
      "properties": {
        "cell": "ABALAAA",
        "label": "ABALAAA",
        "level": 3,
        "pos": "-68790.56654345997,-99027.39576746408",
        "weight": "364.54492323484664"
      }
    },
    {
      "type": "Feature",
      "id": "647",
      "geometry": {
        "type": "Point",
        "coordinates": [
          -39.334979,
          -43.998342
        ]
      },
      "properties": {
        "cell": "ABALAAP",
        "label": "ABALAAP",
        "level": 3,
        "pos": "-74929.67473913488,-104002.37754403161",
        "weight": "370.88412360988303"
      }
    },
    {
      "type": "Feature",
      "id": "632",
      "geometry": {
        "type": "Point",
        "coordinates": [
          -25.727624,
          -32.636384
        ]
      },
      "properties": {
        "cell": "ABALAPA",
        "label": "ABALAPA",
        "level": 3,
        "pos": "-48761.10410920152,-74123.07625031311",
        "weight": "354.569915809632"
      }
    },
    {
      "type": "Feature",
      "id": "615",
      "geometry": {
        "type": "Point",
        "coordinates": [
          -27.778844,
          -39.224081
        ]
      },
      "properties": {
        "cell": "ABALAPP",
        "label": "ABALAPP",
        "level": 3,
        "pos": "-52705.83991879163,-90866.10636459837",
        "weight": "358.431703838759"
      }
    },
    {
      "type": "Feature",
      "id": "597",
      "geometry": {
        "type": "Point",
        "coordinates": [
          -18.170377,
          -11.988548
        ]
      },
      "properties": {
        "cell": "ABALPAA",
        "label": "ABALPAA",
        "level": 3,
        "pos": "-34227.60615512788,-27906.900379089722",
        "weight": "419.10910745657867"
      }
    },
    {
      "type": "Feature",
      "id": "582",
      "geometry": {
        "type": "Point",
        "coordinates": [
          -23.553635,
          -7.782446
        ]
      },
      "properties": {
        "cell": "ABALPAP",
        "label": "ABALPAP",
        "level": 3,
        "pos": "-44580.26024124398,-19128.203527140497",
        "weight": "435.73909811411266"
      }
    },
    {
      "type": "Feature",
      "id": "564",
      "geometry": {
        "type": "Point",
        "coordinates": [
          -34.939371,
          -17.537695
        ]
      },
      "properties": {
        "cell": "ABALPPA",
        "label": "ABALPPA",
        "level": 3,
        "pos": "-66476.38760590558,-39708.727624399966",
        "weight": "501.9854272314448"
      }
    },
    {
      "type": "Feature",
      "id": "550",
      "geometry": {
        "type": "Point",
        "coordinates": [
          -39.053088,
          -22.184028
        ]
      },
      "properties": {
        "cell": "ABALPPP",
        "label": "ABALPPP",
        "level": 3,
        "pos": "-74387.56045522612,-49867.53641249471",
        "weight": "451.9360180832789"
      }
    },
    {
      "type": "Feature",
      "id": "528",
      "geometry": {
        "type": "Point",
        "coordinates": [
          -2.551872,
          -40.905888
        ]
      },
      "properties": {
        "cell": "ABARAAA",
        "label": "ABARAAA",
        "level": 3,
        "pos": "-4191.363616316822,-95383.88262813189",
        "weight": "392.87178127644285"
      }
    },
    {
      "type": "Feature",
      "id": "514",
      "geometry": {
        "type": "Point",
        "coordinates": [
          0.427615,
          -38.993288
        ]
      },
      "properties": {
        "cell": "ABARAAP",
        "label": "ABARAAP",
        "level": 3,
        "pos": "1538.5481212918846,-90254.68538813385",
        "weight": "392.5857544251314"
      }
    },
    {
      "type": "Feature",
      "id": "496",
      "geometry": {
        "type": "Point",
        "coordinates": [
          11.315804,
          -46.440634
        ]
      },
      "properties": {
        "cell": "ABARAPA",
        "label": "ABARAPA",
        "level": 3,
        "pos": "22477.83999789261,-111131.4507338171",
        "weight": "394.9031949317525"
      }
    },
    {
      "type": "Feature",
      "id": "480",
      "geometry": {
        "type": "Point",
        "coordinates": [
          6.569178,
          -47.144817
        ]
      },
      "properties": {
        "cell": "ABARAPP",
        "label": "ABARAPP",
        "level": 3,
        "pos": "13349.511528436158,-113245.8308455607",
        "weight": "400.0027167093548"
      }
    },
    {
      "type": "Feature",
      "id": "461",
      "geometry": {
        "type": "Point",
        "coordinates": [
          5.215996,
          -24.283638
        ]
      },
      "properties": {
        "cell": "ABARPAA",
        "label": "ABARPAA",
        "level": 3,
        "pos": "10747.18075305999,-54564.887897195615",
        "weight": "461.0140526776518"
      }
    },
    {
      "type": "Feature",
      "id": "451",
      "geometry": {
        "type": "Point",
        "coordinates": [
          0.83775,
          -22.91966
        ]
      },
      "properties": {
        "cell": "ABARPAP",
        "label": "ABARPAP",
        "level": 3,
        "pos": "2327.285554983989,-51504.96747583194",
        "weight": "459.3900442053685"
      }
    },
    {
      "type": "Feature",
      "id": "440",
      "geometry": {
        "type": "Point",
        "coordinates": [
          14.374361,
          -24.49662
        ]
      },
      "properties": {
        "cell": "ABARPPA",
        "label": "ABARPPA",
        "level": 3,
        "pos": "28359.80864837515,-55045.60641039686",
        "weight": "459.6170980887703"
      }
    },
    {
      "type": "Feature",
      "id": "432",
      "geometry": {
        "type": "Point",
        "coordinates": [
          11.660328,
          -19.509973
        ]
      },
      "properties": {
        "cell": "ABARPPP",
        "label": "ABARPPP",
        "level": 3,
        "pos": "23140.40402823282,-43984.84018039096",
        "weight": "459.6170980887703"
      }
    },
    {
      "type": "Feature",
      "id": "661",
      "geometry": {
        "type": "Point",
        "coordinates": [
          -34.308209,
          -41.992836
        ]
      },
      "properties": {
        "cell": "ABALAAAA",
        "label": "ABALAAAA",
        "level": 3,
        "pos": "-65262.58864565011,-98365.00577536967",
        "weight": "487.42312827560596"
      }
    },
    {
      "type": "Feature",
      "id": "654",
      "geometry": {
        "type": "Point",
        "coordinates": [
          -34.202344,
          -44.518334
        ]
      },
      "properties": {
        "cell": "ABALAAAP",
        "label": "ABALAAAP",
        "level": 3,
        "pos": "-65059.00236430364,-105494.89491563903",
        "weight": "492.0237225474805"
      }
    },
    {
      "type": "Feature",
      "id": "646",
      "geometry": {
        "type": "Point",
        "coordinates": [
          -37.965179,
          -47.758146
        ]
      },
      "properties": {
        "cell": "ABALAAPA",
        "label": "ABALAAPA",
        "level": 3,
        "pos": "-72295.3810804798,-115110.34974517522",
        "weight": "500.64439611106025"
      }
    },
    {
      "type": "Feature",
      "id": "640",
      "geometry": {
        "type": "Point",
        "coordinates": [
          -41.780937,
          -46.069407
        ]
      },
      "properties": {
        "cell": "ABALAAPP",
        "label": "ABALAAPP",
        "level": 3,
        "pos": "-79633.5358949977,-110027.79551673094",
        "weight": "468.6527215288963"
      }
    },
    {
      "type": "Feature",
      "id": "631",
      "geometry": {
        "type": "Point",
        "coordinates": [
          -23.834107,
          -34.181723
        ]
      },
      "properties": {
        "cell": "ABALAPAA",
        "label": "ABALAPAA",
        "level": 3,
        "pos": "-45119.63509692807,-77928.79502090624",
        "weight": "459.8374210220158"
      }
    },
    {
      "type": "Feature",
      "id": "623",
      "geometry": {
        "type": "Point",
        "coordinates": [
          -23.20503,
          -31.426013
        ]
      },
      "properties": {
        "cell": "ABALAPAP",
        "label": "ABALAPAP",
        "level": 3,
        "pos": "-43909.84812237507,-71188.06068057615",
        "weight": "424.6987739395618"
      }
    },
    {
      "type": "Feature",
      "id": "614",
      "geometry": {
        "type": "Point",
        "coordinates": [
          -25.604995,
          -42.296255
        ]
      },
      "properties": {
        "cell": "ABALAPPA",
        "label": "ABALAPPA",
        "level": 3,
        "pos": "-48525.26515107367,-99206.23373943409",
        "weight": "461.3119203175355"
      }
    },
    {
      "type": "Feature",
      "id": "608",
      "geometry": {
        "type": "Point",
        "coordinates": [
          -24.178547,
          -40.0952
        ]
      },
      "properties": {
        "cell": "ABALAPPP",
        "label": "ABALAPPP",
        "level": 3,
        "pos": "-45782.0445384483,-93192.22913913027",
        "weight": "403.94333232272595"
      }
    },
    {
      "type": "Feature",
      "id": "596",
      "geometry": {
        "type": "Point",
        "coordinates": [
          -14.674426,
          -10.186298
        ]
      },
      "properties": {
        "cell": "ABALPAAA",
        "label": "ABALPAAA",
        "level": 3,
        "pos": "-27504.476284174067,-24131.458082084788",
        "weight": "399.7113365347953"
      }
    },
    {
      "type": "Feature",
      "id": "589",
      "geometry": {
        "type": "Point",
        "coordinates": [
          -17.66358,
          -10.11879
        ]
      },
      "properties": {
        "cell": "ABALPAAP",
        "label": "ABALPAAP",
        "level": 3,
        "pos": "-33252.97654381036,-23990.482693059508",
        "weight": "376.7630410990609"
      }
    },
    {
      "type": "Feature",
      "id": "581",
      "geometry": {
        "type": "Point",
        "coordinates": [
          -20.90887,
          -4.636111
        ]
      },
      "properties": {
        "cell": "ABALPAPA",
        "label": "ABALPAPA",
        "level": 3,
        "pos": "-39494.05855857443,-12621.40932868114",
        "weight": "371.3411176306346"
      }
    },
    {
      "type": "Feature",
      "id": "573",
      "geometry": {
        "type": "Point",
        "coordinates": [
          -25.628852,
          -4.226789
        ]
      },
      "properties": {
        "cell": "ABALPAPP",
        "label": "ABALPAPP",
        "level": 3,
        "pos": "-48571.1510170195,-11777.459610487014",
        "weight": "390.73652904595895"
      }
    },
    {
      "type": "Feature",
      "id": "563",
      "geometry": {
        "type": "Point",
        "coordinates": [
          -33.609807,
          -16.070619
        ]
      },
      "properties": {
        "cell": "ABALPPAA",
        "label": "ABALPPAA",
        "level": 3,
        "pos": "-63919.476123768196,-36558.30175975472",
        "weight": "366.65931308530867"
      }
    },
    {
      "type": "Feature",
      "id": "558",
      "geometry": {
        "type": "Point",
        "coordinates": [
          -36.753179,
          -14.887996
        ]
      },
      "properties": {
        "cell": "ABALPPAP",
        "label": "ABALPPAP",
        "level": 4,
        "pos": "-69964.56198888291,-34035.68431802282",
        "weight": "286.08592996244937"
      }
    },
    {
      "type": "Feature",
      "id": "549",
      "geometry": {
        "type": "Point",
        "coordinates": [
          -42.407326,
          -21.306569
        ]
      },
      "properties": {
        "cell": "ABALPPPA",
        "label": "ABALPPPA",
        "level": 3,
        "pos": "-80838.16237293564,-47925.570180639814",
        "weight": "366.43291174510426"
      }
    },
    {
      "type": "Feature",
      "id": "541",
      "geometry": {
        "type": "Point",
        "coordinates": [
          -43.129398,
          -24.991507
        ]
      },
      "properties": {
        "cell": "ABALPPPP",
        "label": "ABALPPPP",
        "level": 4,
        "pos": "-82226.78616300784,-56165.78342993844",
        "weight": "264.70571295347423"
      }
    },
    {
      "type": "Feature",
      "id": "660",
      "geometry": {
        "type": "Point",
        "coordinates": [
          -33.157402,
          -41.512586
        ]
      },
      "properties": {
        "cell": "ABALAAAAL",
        "label": "ABALAAAAL",
        "level": 3,
        "pos": "-63049.4465648964,-97041.67849701094",
        "weight": "682.160577342576"
      }
    },
    {
      "type": "Feature",
      "id": "657",
      "geometry": {
        "type": "Point",
        "coordinates": [
          -35.407621,
          -40.930186
        ]
      },
      "properties": {
        "cell": "ABALAAAAR",
        "label": "ABALAAAAR",
        "level": 2,
        "pos": "-67376.89238321787,-95449.97763404432",
        "weight": "721.4047499094211"
      }
    },
    {
      "type": "Feature",
      "id": "653",
      "geometry": {
        "type": "Point",
        "coordinates": [
          -34.585092,
          -45.746013
        ]
      },
      "properties": {
        "cell": "ABALAAAPA",
        "label": "ABALAAAPA",
        "level": 3,
        "pos": "-65795.07472610872,-109072.38705283585",
        "weight": "609.4120922857998"
      }
    },
    {
      "type": "Feature",
      "id": "650",
      "geometry": {
        "type": "Point",
        "coordinates": [
          -32.066086,
          -46.003629
        ]
      },
      "properties": {
        "cell": "ABALAAAPP",
        "label": "ABALAAAPP",
        "level": 3,
        "pos": "-60950.71772175548,-109833.01793958529",
        "weight": "609.4120922857998"
      }
    },
    {
      "type": "Feature",
      "id": "645",
      "geometry": {
        "type": "Point",
        "coordinates": [
          -37.674687,
          -50.210571
        ]
      },
      "properties": {
        "cell": "ABALAAPAA",
        "label": "ABALAAPAA",
        "level": 3,
        "pos": "-71736.72586717784,-122794.35508583933",
        "weight": "611.8762098283967"
      }
    },
    {
      "type": "Feature",
      "id": "642",
      "geometry": {
        "type": "Point",
        "coordinates": [
          -35.800321,
          -49.172612
        ]
      },
      "properties": {
        "cell": "ABALAAPAP",
        "label": "ABALAAPAP",
        "level": 2,
        "pos": "-68132.09902586236,-119495.87259550038",
        "weight": "714.1791837174688"
      }
    },
    {
      "type": "Feature",
      "id": "639",
      "geometry": {
        "type": "Point",
        "coordinates": [
          -43.949617,
          -46.205067
        ]
      },
      "properties": {
        "cell": "ABALAAPPA",
        "label": "ABALAAPPA",
        "level": 2,
        "pos": "-83804.168663592,-110430.25253034176",
        "weight": "726.9350805718749"
      }
    },
    {
      "type": "Feature",
      "id": "637",
      "geometry": {
        "type": "Point",
        "coordinates": [
          -42.681095,
          -48.286511
        ]
      },
      "properties": {
        "cell": "ABALAAPPP",
        "label": "ABALAAPPP",
        "level": 3,
        "pos": "-81364.6508840129,-116734.28109763382",
        "weight": "495.909984244756"
      }
    },
    {
      "type": "Feature",
      "id": "630",
      "geometry": {
        "type": "Point",
        "coordinates": [
          -25.15507,
          -34.452665
        ]
      },
      "properties": {
        "cell": "ABALAPAAA",
        "label": "ABALAPAAA",
        "level": 3,
        "pos": "-47660.00578097818,-78603.14748759216",
        "weight": "470.2896177531393"
      }
    },
    {
      "type": "Feature",
      "id": "627",
      "geometry": {
        "type": "Point",
        "coordinates": [
          -24.978685,
          -35.714692
        ]
      },
      "properties": {
        "cell": "ABALAPAAP",
        "label": "ABALAPAAP",
        "level": 3,
        "pos": "-47320.80008456909,-81773.57367055722",
        "weight": "461.10001955698806"
      }
    },
    {
      "type": "Feature",
      "id": "622",
      "geometry": {
        "type": "Point",
        "coordinates": [
          -20.688431,
          -31.3477
        ]
      },
      "properties": {
        "cell": "ABALAPAPA",
        "label": "ABALAPAPA",
        "level": 3,
        "pos": "-39070.13030099394,-70999.48155194051",
        "weight": "567.2191172910996"
      }
    },
    {
      "type": "Feature",
      "id": "619",
      "geometry": {
        "type": "Point",
        "coordinates": [
          -23.625737,
          -29.760273
        ]
      },
      "properties": {
        "cell": "ABALAPAPP",
        "label": "ABALAPAPP",
        "level": 3,
        "pos": "-44718.919342884925,-67209.9166568213",
        "weight": "493.9842976681208"
      }
    },
    {
      "type": "Feature",
      "id": "613",
      "geometry": {
        "type": "Point",
        "coordinates": [
          -25.221961,
          -44.221199
        ]
      },
      "properties": {
        "cell": "ABALAPPAA",
        "label": "ABALAPPAA",
        "level": 3,
        "pos": "-47788.650496920854,-104640.41593405367",
        "weight": "633.9750434960706"
      }
    },
    {
      "type": "Feature",
      "id": "611",
      "geometry": {
        "type": "Point",
        "coordinates": [
          -23.067706,
          -43.617786
        ]
      },
      "properties": {
        "cell": "ABALAPPAP",
        "label": "ABALAPPAP",
        "level": 3,
        "pos": "-43645.755840565114,-102918.36385712159",
        "weight": "476.59404578699167"
      }
    },
    {
      "type": "Feature",
      "id": "607",
      "geometry": {
        "type": "Point",
        "coordinates": [
          -21.128903,
          -40.294927
        ]
      },
      "properties": {
        "cell": "ABALAPPPA",
        "label": "ABALAPPPA",
        "level": 3,
        "pos": "-39917.20597328752,-93729.72744823502",
        "weight": "481.6051520091557"
      }
    },
    {
      "type": "Feature",
      "id": "603",
      "geometry": {
        "type": "Point",
        "coordinates": [
          -23.003139,
          -38.957217
        ]
      },
      "properties": {
        "cell": "ABALAPPPP",
        "label": "ABALAPPPP",
        "level": 3,
        "pos": "-43521.5851065391,-90159.30817298157",
        "weight": "483.51811782172916"
      }
    },
    {
      "type": "Feature",
      "id": "659",
      "geometry": {
        "type": "Point",
        "coordinates": [
          -33.264176,
          -40.504034
        ]
      },
      "properties": {
        "cell": "ABALAAAALA",
        "label": "ABALAAAALA",
        "level": 2,
        "pos": "-63254.78963383494,-94294.176668914",
        "weight": "778.8502241396246"
      }
    },
    {
      "type": "Feature",
      "id": "658",
      "geometry": {
        "type": "Point",
        "coordinates": [
          -31.993361,
          -41.148267
        ]
      },
      "properties": {
        "cell": "ABALAAAALP",
        "label": "ABALAAAALP",
        "level": 2,
        "pos": "-60810.85789163315,-96044.3435815257",
        "weight": "752.3365680002165"
      }
    },
    {
      "type": "Feature",
      "id": "656",
      "geometry": {
        "type": "Point",
        "coordinates": [
          -36.245868,
          -41.507088
        ]
      },
      "properties": {
        "cell": "ABALAAAARL",
        "label": "ABALAAAARL",
        "level": 2,
        "pos": "-68988.94349164882,-97026.58669109573",
        "weight": "749.8825921968865"
      }
    },
    {
      "type": "Feature",
      "id": "655",
      "geometry": {
        "type": "Point",
        "coordinates": [
          -36.136629,
          -40.037972
        ]
      },
      "properties": {
        "cell": "ABALAAAARR",
        "label": "ABALAAAARR",
        "level": 2,
        "pos": "-68778.86442575866,-93038.5070432604",
        "weight": "749.8825921968865"
      }
    },
    {
      "type": "Feature",
      "id": "652",
      "geometry": {
        "type": "Point",
        "coordinates": [
          -34.212079,
          -47.055537
        ]
      },
      "properties": {
        "cell": "ABALAAAPAL",
        "label": "ABALAAAPAL",
        "level": 2,
        "pos": "-65077.72411166546,-112976.22033776522",
        "weight": "733.0584604071466"
      }
    },
    {
      "type": "Feature",
      "id": "651",
      "geometry": {
        "type": "Point",
        "coordinates": [
          -35.636915,
          -46.205892
        ]
      },
      "properties": {
        "cell": "ABALAAAPAR",
        "label": "ABALAAAPAR",
        "level": 2,
        "pos": "-67817.85078658345,-110432.70161212962",
        "weight": "768.5635604918847"
      }
    },
    {
      "type": "Feature",
      "id": "649",
      "geometry": {
        "type": "Point",
        "coordinates": [
          -31.394069,
          -47.478915
        ]
      },
      "properties": {
        "cell": "ABALAAAPPL",
        "label": "ABALAAAPPL",
        "level": 2,
        "pos": "-59658.35218620138,-114258.7904970645",
        "weight": "768.5635604918847"
      }
    },
    {
      "type": "Feature",
      "id": "648",
      "geometry": {
        "type": "Point",
        "coordinates": [
          -30.331566,
          -46.705174
        ]
      },
      "properties": {
        "cell": "ABALAAAPPR",
        "label": "ABALAAAPPR",
        "level": 2,
        "pos": "-57615.02570012562,-111922.52404525006",
        "weight": "733.0584604071466"
      }
    },
    {
      "type": "Feature",
      "id": "644",
      "geometry": {
        "type": "Point",
        "coordinates": [
          -36.242467,
          -51.79834
        ]
      },
      "properties": {
        "cell": "ABALAAPAAA",
        "label": "ABALAAPAAA",
        "level": 1,
        "pos": "-68982.39917098715,-127981.9299200794",
        "weight": "785.9021207013657"
      }
    },
    {
      "type": "Feature",
      "id": "643",
      "geometry": {
        "type": "Point",
        "coordinates": [
          -38.386551,
          -51.479098
        ]
      },
      "properties": {
        "cell": "ABALAAPAAP",
        "label": "ABALAAPAAP",
        "level": 2,
        "pos": "-73105.7254535252,-126924.50671990254",
        "weight": "762.799279594506"
      }
    },
    {
      "type": "Feature",
      "id": "1315",
      "geometry": {
        "type": "Point",
        "coordinates": [
          -35.795303,
          -49.812685
        ]
      },
      "properties": {
        "cell": "ABALAAPAPA",
        "label": "ABALAAPAPA",
        "level": 4,
        "pos": "-68122.44518851518,-121521.59168509523",
        "weight": "287.21720664946696"
      }
    },
    {
      "type": "Feature",
      "id": "641",
      "geometry": {
        "type": "Point",
        "coordinates": [
          -34.124268,
          -50.349904
        ]
      },
      "properties": {
        "cell": "ABALAAPAPP",
        "label": "ABALAAPAPP",
        "level": 2,
        "pos": "-64908.85295241789,-123242.56772309827",
        "weight": "743.6963275037664"
      }
    },
    {
      "type": "Feature",
      "id": "1312",
      "geometry": {
        "type": "Point",
        "coordinates": [
          -44.264392,
          -46.882261
        ]
      },
      "properties": {
        "cell": "ABALAAPPAA",
        "label": "ABALAAPPAA",
        "level": 4,
        "pos": "-84409.52035656082,-112454.2372038031",
        "weight": "301.5668219973928"
      }
    },
    {
      "type": "Feature",
      "id": "638",
      "geometry": {
        "type": "Point",
        "coordinates": [
          -45.893407,
          -46.320918
        ]
      },
      "properties": {
        "cell": "ABALAAPPAP",
        "label": "ABALAAPPAP",
        "level": 2,
        "pos": "-87542.30828295255,-110774.71530251321",
        "weight": "751.6091025732568"
      }
    },
    {
      "type": "Feature",
      "id": "636",
      "geometry": {
        "type": "Point",
        "coordinates": [
          -44.178771,
          -49.003942
        ]
      },
      "properties": {
        "cell": "ABALAAPPPA",
        "label": "ABALAAPPPA",
        "level": 2,
        "pos": "-84244.86390361695,-118966.42762674953",
        "weight": "764.682790625522"
      }
    },
    {
      "type": "Feature",
      "id": "635",
      "geometry": {
        "type": "Point",
        "coordinates": [
          -42.620022,
          -49.959688
        ]
      },
      "properties": {
        "cell": "ABALAAPPPP",
        "label": "ABALAAPPPP",
        "level": 3,
        "pos": "-81247.19661290364,-121990.59721811333",
        "weight": "594.2914261259485"
      }
    },
    {
      "type": "Feature",
      "id": "1335",
      "geometry": {
        "type": "Point",
        "coordinates": [
          -33.672783,
          -41.007328
        ]
      },
      "properties": {
        "cell": "ABALAAAALAL",
        "label": "ABALAAAALAL",
        "level": 4,
        "pos": "-64040.59257895356,-95659.99598652197",
        "weight": "289.9929534770247"
      }
    },
    {
      "type": "Feature",
      "id": "1334",
      "geometry": {
        "type": "Point",
        "coordinates": [
          -32.852569,
          -39.956003
        ]
      },
      "properties": {
        "cell": "ABALAAAALAR",
        "label": "ABALAAAALAR",
        "level": 4,
        "pos": "-62463.21900220636,-92818.55874690555",
        "weight": "289.9929534770247"
      }
    },
    {
      "type": "Feature",
      "id": "1333",
      "geometry": {
        "type": "Point",
        "coordinates": [
          -31.262475,
          -41.485139
        ]
      },
      "properties": {
        "cell": "ABALAAAALPA",
        "label": "ABALAAAALPA",
        "level": 4,
        "pos": "-59405.27787879456,-96966.3493814095",
        "weight": "274.46273768436544"
      }
    },
    {
      "type": "Feature",
      "id": "1332",
      "geometry": {
        "type": "Point",
        "coordinates": [
          -31.460024,
          -40.569575
        ]
      },
      "properties": {
        "cell": "ABALAAAALPP",
        "label": "ABALAAAALPP",
        "level": 4,
        "pos": "-59785.1862144487,-94471.46370582198",
        "weight": "274.46273768436544"
      }
    },
    {
      "type": "Feature",
      "id": "1331",
      "geometry": {
        "type": "Point",
        "coordinates": [
          -35.511389,
          -41.963367
        ]
      },
      "properties": {
        "cell": "ABALAAAARLA",
        "label": "ABALAAAARLA",
        "level": 4,
        "pos": "-67576.4457437827,-98283.52081251421",
        "weight": "265.80440241721254"
      }
    },
    {
      "type": "Feature",
      "id": "1330",
      "geometry": {
        "type": "Point",
        "coordinates": [
          -35.348347,
          -41.562027
        ]
      },
      "properties": {
        "cell": "ABALAAAARLP",
        "label": "ABALAAAARLP",
        "level": 4,
        "pos": "-67262.8961611914,-97177.45707706659",
        "weight": "265.80440241721254"
      }
    },
    {
      "type": "Feature",
      "id": "1329",
      "geometry": {
        "type": "Point",
        "coordinates": [
          -36.447629,
          -40.510288
        ]
      },
      "properties": {
        "cell": "ABALAAAARRA",
        "label": "ABALAAAARRA",
        "level": 4,
        "pos": "-69376.95377183393,-94311.09424801813",
        "weight": "265.80440241721254"
      }
    },
    {
      "type": "Feature",
      "id": "1328",
      "geometry": {
        "type": "Point",
        "coordinates": [
          -34.887403,
          -39.951562
        ]
      },
      "properties": {
        "cell": "ABALAAAARRP",
        "label": "ABALAAAARRP",
        "level": 4,
        "pos": "-66376.44967254873,-92806.65022437827",
        "weight": "265.80440241721254"
      }
    },
    {
      "type": "Feature",
      "id": "1327",
      "geometry": {
        "type": "Point",
        "coordinates": [
          -34.531804,
          -47.721872
        ]
      },
      "properties": {
        "cell": "ABALAAAPALL",
        "label": "ABALAAAPALL",
        "level": 4,
        "pos": "-65692.59055320668,-114999.47263886209",
        "weight": "283.34358731346225"
      }
    },
    {
      "type": "Feature",
      "id": "1326",
      "geometry": {
        "type": "Point",
        "coordinates": [
          -33.69183,
          -47.710414
        ]
      },
      "properties": {
        "cell": "ABALAAAPALR",
        "label": "ABALAAAPALR",
        "level": 4,
        "pos": "-64077.21590752782,-114964.46223235803",
        "weight": "283.34358731346225"
      }
    },
    {
      "type": "Feature",
      "id": "1325",
      "geometry": {
        "type": "Point",
        "coordinates": [
          -36.232967,
          -46.547268
        ]
      },
      "properties": {
        "cell": "ABALAAAPARL",
        "label": "ABALAAAPARL",
        "level": 4,
        "pos": "-68964.12673884135,-111449.85923791751",
        "weight": "304.1370987351413"
      }
    },
    {
      "type": "Feature",
      "id": "1324",
      "geometry": {
        "type": "Point",
        "coordinates": [
          -35.456733,
          -46.781583
        ]
      },
      "properties": {
        "cell": "ABALAAAPARR",
        "label": "ABALAAAPARR",
        "level": 4,
        "pos": "-67471.33568966477,-112151.73236021918",
        "weight": "304.1370987351413"
      }
    },
    {
      "type": "Feature",
      "id": "1323",
      "geometry": {
        "type": "Point",
        "coordinates": [
          -30.551531,
          -48.170925
        ]
      },
      "properties": {
        "cell": "ABALAAAPPLL",
        "label": "ABALAAAPPLL",
        "level": 4,
        "pos": "-58038.04836467235,-116377.60091862093",
        "weight": "304.1370987351413"
      }
    },
    {
      "type": "Feature",
      "id": "1322",
      "geometry": {
        "type": "Point",
        "coordinates": [
          -31.386498,
          -48.302781
        ]
      },
      "properties": {
        "cell": "ABALAAAPPLR",
        "label": "ABALAAAPPLR",
        "level": 4,
        "pos": "-59643.78684847333,-116784.55396781475",
        "weight": "304.1370987351413"
      }
    },
    {
      "type": "Feature",
      "id": "1321",
      "geometry": {
        "type": "Point",
        "coordinates": [
          -29.77484,
          -47.337912
        ]
      },
      "properties": {
        "cell": "ABALAAAPPRL",
        "label": "ABALAAAPPRL",
        "level": 4,
        "pos": "-56544.37653745042,-113830.49862422021",
        "weight": "283.34358731346225"
      }
    },
    {
      "type": "Feature",
      "id": "1320",
      "geometry": {
        "type": "Point",
        "coordinates": [
          -29.322897,
          -46.946726
        ]
      },
      "properties": {
        "cell": "ABALAAAPPRR",
        "label": "ABALAAAPPRR",
        "level": 4,
        "pos": "-55675.23557323337,-112648.23841852712",
        "weight": "283.34358731346225"
      }
    },
    {
      "type": "Feature",
      "id": "1319",
      "geometry": {
        "type": "Point",
        "coordinates": [
          -35.390347,
          -52.351875
        ]
      },
      "properties": {
        "cell": "ABALAAPAAAL",
        "label": "ABALAAPAAAL",
        "level": 4,
        "pos": "-67343.67147610604,-129833.29418412836",
        "weight": "311.0864151642641"
      }
    },
    {
      "type": "Feature",
      "id": "1318",
      "geometry": {
        "type": "Point",
        "coordinates": [
          -36.141714,
          -52.553937
        ]
      },
      "properties": {
        "cell": "ABALAAPAAAR",
        "label": "ABALAAPAAAR",
        "level": 4,
        "pos": "-68788.63624347278,-130514.87990676657",
        "weight": "311.0864151642641"
      }
    },
    {
      "type": "Feature",
      "id": "1317",
      "geometry": {
        "type": "Point",
        "coordinates": [
          -38.172212,
          -52.116941
        ]
      },
      "properties": {
        "cell": "ABALAAPAAPA",
        "label": "ABALAAPAAPA",
        "level": 4,
        "pos": "-72693.53271229375,-129044.71542086464",
        "weight": "297.5469708469274"
      }
    },
    {
      "type": "Feature",
      "id": "1316",
      "geometry": {
        "type": "Point",
        "coordinates": [
          -38.940547,
          -51.998319
        ]
      },
      "properties": {
        "cell": "ABALAAPAAPP",
        "label": "ABALAAPAAPP",
        "level": 4,
        "pos": "-74171.13331986433,-128648.13548250853",
        "weight": "297.5469708469274"
      }
    },
    {
      "type": "Feature",
      "id": "1314",
      "geometry": {
        "type": "Point",
        "coordinates": [
          -33.755045,
          -51.096757
        ]
      },
      "properties": {
        "cell": "ABALAAPAPPA",
        "label": "ABALAAPAPPA",
        "level": 4,
        "pos": "-64198.79483903191,-125667.7777373136",
        "weight": "268.2116703896872"
      }
    },
    {
      "type": "Feature",
      "id": "1313",
      "geometry": {
        "type": "Point",
        "coordinates": [
          -33.093058,
          -50.831128
        ]
      },
      "properties": {
        "cell": "ABALAAPAPPP",
        "label": "ABALAAPAPPP",
        "level": 4,
        "pos": "-62925.705034835526,-124800.78109176399",
        "weight": "268.2116703896872"
      }
    },
    {
      "type": "Feature",
      "id": "1311",
      "geometry": {
        "type": "Point",
        "coordinates": [
          -46.730755,
          -46.818427
        ]
      },
      "properties": {
        "cell": "ABALAAPPAPA",
        "label": "ABALAAPPAPA",
        "level": 4,
        "pos": "-89152.6336508875,-112262.3666576205",
        "weight": "264.52285159925214"
      }
    },
    {
      "type": "Feature",
      "id": "1310",
      "geometry": {
        "type": "Point",
        "coordinates": [
          -47.00145,
          -46.279381
        ]
      },
      "properties": {
        "cell": "ABALAAPPAPP",
        "label": "ABALAAPPAPP",
        "level": 4,
        "pos": "-89673.20922233062,-110651.13182128538",
        "weight": "264.52285159925214"
      }
    },
    {
      "type": "Feature",
      "id": "1309",
      "geometry": {
        "type": "Point",
        "coordinates": [
          -45.319522,
          -49.398713
        ]
      },
      "properties": {
        "cell": "ABALAAPPPAA",
        "label": "ABALAAPPPAA",
        "level": 3,
        "pos": "-86438.65635617735,-120208.42308626468",
        "weight": "323.9783181451709"
      }
    },
    {
      "type": "Feature",
      "id": "1308",
      "geometry": {
        "type": "Point",
        "coordinates": [
          -44.596462,
          -49.707846
        ]
      },
      "properties": {
        "cell": "ABALAAPPPAP",
        "label": "ABALAAPPPAP",
        "level": 3,
        "pos": "-85048.12587281369,-121187.97369652684",
        "weight": "323.9783181451709"
      }
    },
    {
      "type": "Feature",
      "id": "634",
      "geometry": {
        "type": "Point",
        "coordinates": [
          -43.338631,
          -51.220686
        ]
      },
      "properties": {
        "cell": "ABALAAPPPPA",
        "label": "ABALAAPPPPA",
        "level": 1,
        "pos": "-82629.17124219604,-126073.98410022931",
        "weight": "850.0436129060644"
      }
    },
    {
      "type": "Feature",
      "id": "1305",
      "geometry": {
        "type": "Point",
        "coordinates": [
          -41.836613,
          -50.434868
        ]
      },
      "properties": {
        "cell": "ABALAAPPPPP",
        "label": "ABALAAPPPPP",
        "level": 4,
        "pos": "-79740.61210347008,-123516.52844050949",
        "weight": "255.8548800945337"
      }
    },
    {
      "type": "Feature",
      "id": "1307",
      "geometry": {
        "type": "Point",
        "coordinates": [
          -44.084325,
          -51.811217
        ]
      },
      "properties": {
        "cell": "ABALAAPPPPAA",
        "label": "ABALAAPPPPAA",
        "level": 3,
        "pos": "-84063.23474147293,-128024.7448647138",
        "weight": "349.6618033595319"
      }
    },
    {
      "type": "Feature",
      "id": "1306",
      "geometry": {
        "type": "Point",
        "coordinates": [
          -43.212882,
          -51.98774
        ]
      },
      "properties": {
        "cell": "ABALAAPPPPAP",
        "label": "ABALAAPPPPAP",
        "level": 3,
        "pos": "-82387.3366483686,-128612.82495179768",
        "weight": "349.6618033595319"
      }
    },
    {
      "type": "Feature",
      "id": "629",
      "geometry": {
        "type": "Point",
        "coordinates": [
          -26.650063,
          -34.258154
        ]
      },
      "properties": {
        "cell": "ABALAPAAAA",
        "label": "ABALAPAAAA",
        "level": 1,
        "pos": "-50535.05810964854,-78118.81159095069",
        "weight": "811.1608201079392"
      }
    },
    {
      "type": "Feature",
      "id": "628",
      "geometry": {
        "type": "Point",
        "coordinates": [
          -24.802019,
          -33.615694
        ]
      },
      "properties": {
        "cell": "ABALAPAAAP",
        "label": "ABALAPAAAP",
        "level": 2,
        "pos": "-46981.05424979192,-76526.94734513243",
        "weight": "714.3279152690274"
      }
    },
    {
      "type": "Feature",
      "id": "626",
      "geometry": {
        "type": "Point",
        "coordinates": [
          -25.18577,
          -36.661712
        ]
      },
      "properties": {
        "cell": "ABALAPAAPA",
        "label": "ABALAPAAPA",
        "level": 2,
        "pos": "-47719.05061888164,-84185.71153836203",
        "weight": "771.0874401870495"
      }
    },
    {
      "type": "Feature",
      "id": "625",
      "geometry": {
        "type": "Point",
        "coordinates": [
          -27.135441,
          -36.087509
        ]
      },
      "properties": {
        "cell": "ABALAPAAPP",
        "label": "ABALAPAAPP",
        "level": 3,
        "pos": "-51468.49870982985,-82719.69138321471",
        "weight": "585.4777523035407"
      }
    },
    {
      "type": "Feature",
      "id": "1295",
      "geometry": {
        "type": "Point",
        "coordinates": [
          -19.886734,
          -30.676086
        ]
      },
      "properties": {
        "cell": "ABALAPAPAA",
        "label": "ABALAPAPAA",
        "level": 4,
        "pos": "-37528.3658408329,-69388.5984764408",
        "weight": "246.3880127848361"
      }
    },
    {
      "type": "Feature",
      "id": "621",
      "geometry": {
        "type": "Point",
        "coordinates": [
          -18.749982,
          -31.747167
        ]
      },
      "properties": {
        "cell": "ABALAPAPAP",
        "label": "ABALAPAPAP",
        "level": 3,
        "pos": "-35342.25635376184,-71963.05919732616",
        "weight": "644.8018360461965"
      }
    },
    {
      "type": "Feature",
      "id": "618",
      "geometry": {
        "type": "Point",
        "coordinates": [
          -24.283117,
          -28.212083
        ]
      },
      "properties": {
        "cell": "ABALAPAPPA",
        "label": "ABALAPAPPA",
        "level": 3,
        "pos": "-45983.13658770489,-63571.44914033284",
        "weight": "616.6804080632246"
      }
    },
    {
      "type": "Feature",
      "id": "616",
      "geometry": {
        "type": "Point",
        "coordinates": [
          -24.82092,
          -29.791096
        ]
      },
      "properties": {
        "cell": "ABALAPAPPP",
        "label": "ABALAPAPPP",
        "level": 2,
        "pos": "-47017.40198186666,-67282.92094487451",
        "weight": "753.2916468489262"
      }
    },
    {
      "type": "Feature",
      "id": "1286",
      "geometry": {
        "type": "Point",
        "coordinates": [
          -26.101839,
          -44.733706
        ]
      },
      "properties": {
        "cell": "ABALAPPAAA",
        "label": "ABALAPPAAA",
        "level": 4,
        "pos": "-49480.76431659785,-106116.95841591577",
        "weight": "269.7648461722311"
      }
    },
    {
      "type": "Feature",
      "id": "612",
      "geometry": {
        "type": "Point",
        "coordinates": [
          -24.31792,
          -45.973416
        ]
      },
      "properties": {
        "cell": "ABALAPPAAP",
        "label": "ABALAPPAAP",
        "level": 1,
        "pos": "-46050.07318340695,-109743.63337406534",
        "weight": "836.0849236102863"
      }
    },
    {
      "type": "Feature",
      "id": "610",
      "geometry": {
        "type": "Point",
        "coordinates": [
          -21.061721,
          -44.008475
        ]
      },
      "properties": {
        "cell": "ABALAPPAPA",
        "label": "ABALAPPAPA",
        "level": 1,
        "pos": "-39788.00982472958,-104031.34097859857",
        "weight": "800.5707777590012"
      }
    },
    {
      "type": "Feature",
      "id": "609",
      "geometry": {
        "type": "Point",
        "coordinates": [
          -22.152703,
          -44.888476
        ]
      },
      "properties": {
        "cell": "ABALAPPAPP",
        "label": "ABALAPPAPP",
        "level": 2,
        "pos": "-41886.100744446216,-106565.41877173458",
        "weight": "720.4946492121798"
      }
    },
    {
      "type": "Feature",
      "id": "606",
      "geometry": {
        "type": "Point",
        "coordinates": [
          -19.601733,
          -39.521541
        ]
      },
      "properties": {
        "cell": "ABALAPPPAA",
        "label": "ABALAPPPAA",
        "level": 2,
        "pos": "-36980.27545523082,-91657.115967688",
        "weight": "766.8528572979657"
      }
    },
    {
      "type": "Feature",
      "id": "605",
      "geometry": {
        "type": "Point",
        "coordinates": [
          -19.174256,
          -41.087171
        ]
      },
      "properties": {
        "cell": "ABALAPPPAP",
        "label": "ABALAPPPAP",
        "level": 3,
        "pos": "-36158.188819258685,-95877.62558438301",
        "weight": "609.9585564025069"
      }
    },
    {
      "type": "Feature",
      "id": "602",
      "geometry": {
        "type": "Point",
        "coordinates": [
          -24.236422,
          -38.521549
        ]
      },
      "properties": {
        "cell": "ABALAPPPPA",
        "label": "ABALAPPPPA",
        "level": 3,
        "pos": "-45893.335868935086,-89011.12058387038",
        "weight": "613.3234967310173"
      }
    },
    {
      "type": "Feature",
      "id": "600",
      "geometry": {
        "type": "Point",
        "coordinates": [
          -21.985641,
          -38.066661
        ]
      },
      "properties": {
        "cell": "ABALAPPPPP",
        "label": "ABALAPPPPP",
        "level": 2,
        "pos": "-41564.817052951854,-87819.66656311136",
        "weight": "748.8708374282093"
      }
    },
    {
      "type": "Feature",
      "id": "1304",
      "geometry": {
        "type": "Point",
        "coordinates": [
          -25.856602,
          -34.914835
        ]
      },
      "properties": {
        "cell": "ABALAPAAAAA",
        "label": "ABALAPAAAAA",
        "level": 3,
        "pos": "-49009.143208100744,-79758.51571789157",
        "weight": "359.8722676775033"
      }
    },
    {
      "type": "Feature",
      "id": "1303",
      "geometry": {
        "type": "Point",
        "coordinates": [
          -26.659443,
          -35.040895
        ]
      },
      "properties": {
        "cell": "ABALAPAAAAP",
        "label": "ABALAPAAAAP",
        "level": 3,
        "pos": "-50553.10115650598,-80074.77654866682",
        "weight": "359.8722676775033"
      }
    },
    {
      "type": "Feature",
      "id": "1302",
      "geometry": {
        "type": "Point",
        "coordinates": [
          -24.35175,
          -33.950008
        ]
      },
      "properties": {
        "cell": "ABALAPAAAPA",
        "label": "neuron",
        "level": 4,
        "pos": "-46115.12646521176,-77353.80106750217",
        "weight": "303.17340495976265"
      }
    },
    {
      "type": "Feature",
      "id": "1301",
      "geometry": {
        "type": "Point",
        "coordinates": [
          -25.484218,
          -33.816884
        ]
      },
      "properties": {
        "cell": "ABALAPAAAPP",
        "label": "ABALAPAAAPP",
        "level": 4,
        "pos": "-48292.998440663934,-77024.15918460574",
        "weight": "303.17340495976265"
      }
    },
    {
      "type": "Feature",
      "id": "1300",
      "geometry": {
        "type": "Point",
        "coordinates": [
          -24.267949,
          -36.764461
        ]
      },
      "properties": {
        "cell": "ABALAPAAPAA",
        "label": "ABALAPAAPAA",
        "level": 3,
        "pos": "-45953.97043621608,-84449.19431119895",
        "weight": "338.137396911057"
      }
    },
    {
      "type": "Feature",
      "id": "1299",
      "geometry": {
        "type": "Point",
        "coordinates": [
          -24.855447,
          -37.360937
        ]
      },
      "properties": {
        "cell": "ABALAPAAPAP",
        "label": "ABALAPAAPAP",
        "level": 3,
        "pos": "-47083.797105442805,-85985.77960474868",
        "weight": "338.137396911057"
      }
    },
    {
      "type": "Feature",
      "id": "624",
      "geometry": {
        "type": "Point",
        "coordinates": [
          -28.211958,
          -35.249009
        ]
      },
      "properties": {
        "cell": "ABALAPAAPPA",
        "label": "ABALAPAAPPA",
        "level": 1,
        "pos": "-53538.77019673818,-80597.9730466278",
        "weight": "837.7855973724519"
      }
    },
    {
      "type": "Feature",
      "id": "1296",
      "geometry": {
        "type": "Point",
        "coordinates": [
          -27.179494,
          -36.816539
        ]
      },
      "properties": {
        "cell": "ABALAPAAPPP",
        "label": "ABALAPAAPPP",
        "level": 4,
        "pos": "-51553.22343214764,-84582.86851398958",
        "weight": "258.3041257488993"
      }
    },
    {
      "type": "Feature",
      "id": "620",
      "geometry": {
        "type": "Point",
        "coordinates": [
          -16.96392,
          -31.860036
        ]
      },
      "properties": {
        "cell": "ABALAPAPAPA",
        "label": "ABALAPAPAPA",
        "level": 1,
        "pos": "-31907.45396296335,-72236.0655886892",
        "weight": "864.1555386071927"
      }
    },
    {
      "type": "Feature",
      "id": "1292",
      "geometry": {
        "type": "Point",
        "coordinates": [
          -18.61868,
          -32.542131
        ]
      },
      "properties": {
        "cell": "ABALAPAPAPP",
        "label": "ABALAPAPAPP",
        "level": 4,
        "pos": "-35089.74507114749,-73893.12262941379",
        "weight": "266.93646596037325"
      }
    },
    {
      "type": "Feature",
      "id": "617",
      "geometry": {
        "type": "Point",
        "coordinates": [
          -25.902033,
          -27.64155
        ]
      },
      "properties": {
        "cell": "ABALAPAPPAA",
        "label": "ABALAPAPPAA",
        "level": 1,
        "pos": "-49096.50815847579,-62244.03611935281",
        "weight": "844.628926050865"
      }
    },
    {
      "type": "Feature",
      "id": "1289",
      "geometry": {
        "type": "Point",
        "coordinates": [
          -23.211977,
          -27.927951
        ]
      },
      "properties": {
        "cell": "ABALAPAPPAP",
        "label": "ABALAPAPPAP",
        "level": 4,
        "pos": "-43923.21235064926,-62909.50859899964",
        "weight": "262.94249869256623"
      }
    },
    {
      "type": "Feature",
      "id": "1288",
      "geometry": {
        "type": "Point",
        "coordinates": [
          -24.647088,
          -30.486856
        ]
      },
      "properties": {
        "cell": "ABALAPAPPPA",
        "label": "ABALAPAPPPA",
        "level": 4,
        "pos": "-46683.096833442694,-68936.76499379247",
        "weight": "313.7004044081289"
      }
    },
    {
      "type": "Feature",
      "id": "1287",
      "geometry": {
        "type": "Point",
        "coordinates": [
          -25.45397,
          -30.233305
        ]
      },
      "properties": {
        "cell": "ABALAPAPPPP",
        "label": "ABALAPAPPPP",
        "level": 4,
        "pos": "-48234.8341812972,-68332.70584752897",
        "weight": "313.7004044081289"
      }
    },
    {
      "type": "Feature",
      "id": "1298",
      "geometry": {
        "type": "Point",
        "coordinates": [
          -28.740105,
          -35.044364
        ]
      },
      "properties": {
        "cell": "ABALAPAAPPAA",
        "label": "ABALAPAAPPAA",
        "level": 3,
        "pos": "-54554.45935188175,-80083.49067532772",
        "weight": "341.02871701922214"
      }
    },
    {
      "type": "Feature",
      "id": "1297",
      "geometry": {
        "type": "Point",
        "coordinates": [
          -28.719471,
          -35.785227
        ]
      },
      "properties": {
        "cell": "ABALAPAAPPAP",
        "label": "ABALAPAAPPAP",
        "level": 3,
        "pos": "-54514.78426083276,-81952.23400821492",
        "weight": "341.02871701922214"
      }
    },
    {
      "type": "Feature",
      "id": "1294",
      "geometry": {
        "type": "Point",
        "coordinates": [
          -16.074511,
          -32.569237
        ]
      },
      "properties": {
        "cell": "ABALAPAPAPAA",
        "label": "ABALAPAPAPAA",
        "level": 3,
        "pos": "-30197.006744435654,-73959.22942387199",
        "weight": "351.10919494701784"
      }
    },
    {
      "type": "Feature",
      "id": "1293",
      "geometry": {
        "type": "Point",
        "coordinates": [
          -16.934536,
          -32.679638
        ]
      },
      "properties": {
        "cell": "ABALAPAPAPAP",
        "label": "ABALAPAPAPAP",
        "level": 3,
        "pos": "-31850.9374406563,-74228.69415435",
        "weight": "351.10919494701784"
      }
    },
    {
      "type": "Feature",
      "id": "1291",
      "geometry": {
        "type": "Point",
        "coordinates": [
          -26.761954,
          -28.228496
        ]
      },
      "properties": {
        "cell": "ABALAPAPPAAA",
        "label": "ABALAPAPPAAA",
        "level": 3,
        "pos": "-50750.242878283825,-63609.74283388967",
        "weight": "342.19400748547025"
      }
    },
    {
      "type": "Feature",
      "id": "1290",
      "geometry": {
        "type": "Point",
        "coordinates": [
          -25.987764,
          -28.50163
        ]
      },
      "properties": {
        "cell": "ABALAPAPPAAP",
        "label": "ABALAPAPPAAP",
        "level": 3,
        "pos": "-49261.37945514335,-64247.82375273375",
        "weight": "342.19400748547025"
      }
    },
    {
      "type": "Feature",
      "id": "1285",
      "geometry": {
        "type": "Point",
        "coordinates": [
          -24.310515,
          -46.958817
        ]
      },
      "properties": {
        "cell": "ABALAPPAAPA",
        "label": "ABALAPPAAPA",
        "level": 3,
        "pos": "-46035.83063695205,-112684.65275261927",
        "weight": "332.67752179107924"
      }
    },
    {
      "type": "Feature",
      "id": "1284",
      "geometry": {
        "type": "Point",
        "coordinates": [
          -23.455009,
          -46.784045
        ]
      },
      "properties": {
        "cell": "ABALAPPAAPP",
        "label": "ABALAPPAAPP",
        "level": 3,
        "pos": "-44390.59030569812,-112159.11562574537",
        "weight": "332.67752179107924"
      }
    },
    {
      "type": "Feature",
      "id": "1283",
      "geometry": {
        "type": "Point",
        "coordinates": [
          -20.036943,
          -44.642094
        ]
      },
      "properties": {
        "cell": "ABALAPPAPAA",
        "label": "ABALAPPAPAA",
        "level": 3,
        "pos": "-37817.24013754141,-105852.07453362927",
        "weight": "352.0508117935716"
      }
    },
    {
      "type": "Feature",
      "id": "1282",
      "geometry": {
        "type": "Point",
        "coordinates": [
          -19.770636,
          -44.078823
        ]
      },
      "properties": {
        "cell": "ABALAPPAPAP",
        "label": "ABALAPPAPAP",
        "level": 3,
        "pos": "-37305.10052209601,-104232.52068599996",
        "weight": "352.0508117935716"
      }
    },
    {
      "type": "Feature",
      "id": "1281",
      "geometry": {
        "type": "Point",
        "coordinates": [
          -21.967832,
          -45.707568
        ]
      },
      "properties": {
        "cell": "ABALAPPAPPA",
        "label": "neuron",
        "level": 4,
        "pos": "-41530.566705598205,-108959.17680387452",
        "weight": "305.1600155586509"
      }
    },
    {
      "type": "Feature",
      "id": "1280",
      "geometry": {
        "type": "Point",
        "coordinates": [
          -21.29805,
          -45.422189
        ]
      },
      "properties": {
        "cell": "ABALAPPAPPP",
        "label": "ABALAPPAPPP",
        "level": 4,
        "pos": "-40242.50008413031,-108121.23818965528",
        "weight": "305.1600155586509"
      }
    },
    {
      "type": "Feature",
      "id": "1279",
      "geometry": {
        "type": "Point",
        "coordinates": [
          -18.345862,
          -39.32234
        ]
      },
      "properties": {
        "cell": "ABALAPPPAAA",
        "label": "ABALAPPPAAA",
        "level": 3,
        "pos": "-34565.087431678265,-91127.03288782101",
        "weight": "321.85032689881774"
      }
    },
    {
      "type": "Feature",
      "id": "1278",
      "geometry": {
        "type": "Point",
        "coordinates": [
          -18.814346,
          -38.762021
        ]
      },
      "properties": {
        "cell": "ABALAPPPAAP",
        "label": "ABALAPPPAAP",
        "level": 3,
        "pos": "-35466.038146990766,-89644.01411820865",
        "weight": "321.85032689881774"
      }
    },
    {
      "type": "Feature",
      "id": "604",
      "geometry": {
        "type": "Point",
        "coordinates": [
          -17.916305,
          -42.009878
        ]
      },
      "properties": {
        "cell": "ABALAPPPAPA",
        "label": "ABALAPPPAPA",
        "level": 1,
        "pos": "-33739.00226712391,-98412.15211235771",
        "weight": "841.3926226941014"
      }
    },
    {
      "type": "Feature",
      "id": "1275",
      "geometry": {
        "type": "Point",
        "coordinates": [
          -18.100506,
          -40.838604
        ]
      },
      "properties": {
        "cell": "ABALAPPPAPP",
        "label": "ABALAPPPAPP",
        "level": 4,
        "pos": "-34093.240083517994,-95200.97032230356",
        "weight": "259.3062849720493"
      }
    },
    {
      "type": "Feature",
      "id": "601",
      "geometry": {
        "type": "Point",
        "coordinates": [
          -25.688282,
          -38.342866
        ]
      },
      "properties": {
        "cell": "ABALAPPPPAA",
        "label": "ABALAPPPPAA",
        "level": 1,
        "pos": "-48685.44462565498,-88542.22311828249",
        "weight": "842.1160729174716"
      }
    },
    {
      "type": "Feature",
      "id": "1272",
      "geometry": {
        "type": "Point",
        "coordinates": [
          -24.52734,
          -39.091047
        ]
      },
      "properties": {
        "cell": "ABALAPPPPAP",
        "label": "ABALAPPPPAP",
        "level": 4,
        "pos": "-46452.814520168096,-90513.42856864989",
        "weight": "261.8292816811821"
      }
    },
    {
      "type": "Feature",
      "id": "1271",
      "geometry": {
        "type": "Point",
        "coordinates": [
          -21.995812,
          -37.383491
        ]
      },
      "properties": {
        "cell": "ABALAPPPPPA",
        "label": "ABALAPPPPPA",
        "level": 4,
        "pos": "-41584.37526016128,-86044.1246009587",
        "weight": "312.18541024465827"
      }
    },
    {
      "type": "Feature",
      "id": "1270",
      "geometry": {
        "type": "Point",
        "coordinates": [
          -21.141346,
          -37.561574
        ]
      },
      "properties": {
        "cell": "ABALAPPPPPP",
        "label": "ABALAPPPPPP",
        "level": 4,
        "pos": "-39941.14360754577,-86505.38046493799",
        "weight": "312.18541024465827"
      }
    },
    {
      "type": "Feature",
      "id": "1277",
      "geometry": {
        "type": "Point",
        "coordinates": [
          -18.101026,
          -42.717418
        ]
      },
      "properties": {
        "cell": "ABALAPPPAPAA",
        "label": "ABALAPPPAPAA",
        "level": 3,
        "pos": "-34094.23576285348,-100380.63768542832",
        "weight": "342.53274013259283"
      }
    },
    {
      "type": "Feature",
      "id": "1276",
      "geometry": {
        "type": "Point",
        "coordinates": [
          -17.126505,
          -42.639006
        ]
      },
      "properties": {
        "cell": "ABALAPPPAPAP",
        "label": "ABALAPPPAPAP",
        "level": 3,
        "pos": "-32220.124904931643,-100161.38800494712",
        "weight": "342.53274013259283"
      }
    },
    {
      "type": "Feature",
      "id": "1274",
      "geometry": {
        "type": "Point",
        "coordinates": [
          -25.069693,
          -38.998006
        ]
      },
      "properties": {
        "cell": "ABALAPPPPAAA",
        "label": "ABALAPPPPAAA",
        "level": 3,
        "pos": "-47495.819559429656,-90267.16604416982",
        "weight": "341.4694578433817"
      }
    },
    {
      "type": "Feature",
      "id": "1273",
      "geometry": {
        "type": "Point",
        "coordinates": [
          -26.01263,
          -38.813245
        ]
      },
      "properties": {
        "cell": "ABALAPPPPAAP",
        "label": "ABALAPPPPAAP",
        "level": 3,
        "pos": "-49309.19651287581,-89779.10045836124",
        "weight": "341.4694578433817"
      }
    },
    {
      "type": "Feature",
      "id": "595",
      "geometry": {
        "type": "Point",
        "coordinates": [
          -13.858658,
          -7.801267
        ]
      },
      "properties": {
        "cell": "ABALPAAAA",
        "label": "ABALPAAAA",
        "level": 3,
        "pos": "-25935.664935409455,-19167.2459846348",
        "weight": "547.9185589500927"
      }
    },
    {
      "type": "Feature",
      "id": "592",
      "geometry": {
        "type": "Point",
        "coordinates": [
          -11.748124,
          -9.322307
        ]
      },
      "properties": {
        "cell": "ABALPAAAP",
        "label": "ABALPAAAP",
        "level": 3,
        "pos": "-21876.854284482208,-22329.319119541637",
        "weight": "502.10592456399183"
      }
    },
    {
      "type": "Feature",
      "id": "588",
      "geometry": {
        "type": "Point",
        "coordinates": [
          -19.1105,
          -10.237343
        ]
      },
      "properties": {
        "cell": "ABALPAAPA",
        "label": "ABALPAAPA",
        "level": 3,
        "pos": "-36035.58167751869,-24238.075266651074",
        "weight": "592.0989312935626"
      }
    },
    {
      "type": "Feature",
      "id": "585",
      "geometry": {
        "type": "Point",
        "coordinates": [
          -16.697426,
          -8.103191
        ]
      },
      "properties": {
        "cell": "ABALPAAPP",
        "label": "ABALPAAPP",
        "level": 3,
        "pos": "-31394.946801090846,-19793.928041944102",
        "weight": "595.7632272687503"
      }
    },
    {
      "type": "Feature",
      "id": "580",
      "geometry": {
        "type": "Point",
        "coordinates": [
          -18.244849,
          -2.628353
        ]
      },
      "properties": {
        "cell": "ABALPAPAA",
        "label": "ABALPAPAA",
        "level": 3,
        "pos": "-34370.82535945498,-8485.630522276537",
        "weight": "587.6520010061155"
      }
    },
    {
      "type": "Feature",
      "id": "577",
      "geometry": {
        "type": "Point",
        "coordinates": [
          -20.518504,
          -2.062831
        ]
      },
      "properties": {
        "cell": "ABALPAPAP",
        "label": "ABALPAPAP",
        "level": 3,
        "pos": "-38743.339800347465,-7322.126098844675",
        "weight": "528.3443738614616"
      }
    },
    {
      "type": "Feature",
      "id": "572",
      "geometry": {
        "type": "Point",
        "coordinates": [
          -27.906594,
          -2.525653
        ]
      },
      "properties": {
        "cell": "ABALPAPPA",
        "label": "ABALPAPPA",
        "level": 3,
        "pos": "-52951.515573295364,-8274.300497507256",
        "weight": "527.1946068764105"
      }
    },
    {
      "type": "Feature",
      "id": "568",
      "geometry": {
        "type": "Point",
        "coordinates": [
          -25.250036,
          -1.077635
        ]
      },
      "properties": {
        "cell": "ABALPAPPP",
        "label": "ABALPAPPP",
        "level": 3,
        "pos": "-47842.6415120378,-5296.120651044276",
        "weight": "534.0878733151054"
      }
    },
    {
      "type": "Feature",
      "id": "562",
      "geometry": {
        "type": "Point",
        "coordinates": [
          -31.623508,
          -15.133387
        ]
      },
      "properties": {
        "cell": "ABALPPAAA",
        "label": "ABALPPAAA",
        "level": 2,
        "pos": "-60099.58705874668,-34557.93796403108",
        "weight": "701.528998650631"
      }
    },
    {
      "type": "Feature",
      "id": "560",
      "geometry": {
        "type": "Point",
        "coordinates": [
          -32.506854,
          -16.788998
        ]
      },
      "properties": {
        "cell": "ABALPPAAP",
        "label": "ABALPPAAP",
        "level": 3,
        "pos": "-61798.3746892149,-38097.923135523466",
        "weight": "631.7878012967136"
      }
    },
    {
      "type": "Feature",
      "id": "557",
      "geometry": {
        "type": "Point",
        "coordinates": [
          -39.136952,
          -13.918982
        ]
      },
      "properties": {
        "cell": "ABALPPAPA",
        "label": "ABALPPAPA",
        "level": 3,
        "pos": "-74548.84294361628,-31979.04807314036",
        "weight": "534.0877458403811"
      }
    },
    {
      "type": "Feature",
      "id": "554",
      "geometry": {
        "type": "Point",
        "coordinates": [
          -36.418421,
          -12.602751
        ]
      },
      "properties": {
        "cell": "ABALPPAPP",
        "label": "ABALPPAPP",
        "level": 3,
        "pos": "-69320.78041735078,-29199.143790274753",
        "weight": "487.6958212088321"
      }
    },
    {
      "type": "Feature",
      "id": "548",
      "geometry": {
        "type": "Point",
        "coordinates": [
          -45.270336,
          -21.743974
        ]
      },
      "properties": {
        "cell": "ABALPPPAA",
        "label": "ABALPPPAA",
        "level": 3,
        "pos": "-86344.07475468605,-48892.14224029456",
        "weight": "587.2291173711333"
      }
    },
    {
      "type": "Feature",
      "id": "545",
      "geometry": {
        "type": "Point",
        "coordinates": [
          -44.044921,
          -19.764587
        ]
      },
      "properties": {
        "cell": "ABALPPPAP",
        "label": "ABALPPPAP",
        "level": 3,
        "pos": "-83987.44933299498,-44540.56248560267",
        "weight": "534.1082942785033"
      }
    },
    {
      "type": "Feature",
      "id": "540",
      "geometry": {
        "type": "Point",
        "coordinates": [
          -45.289367,
          -27.266293
        ]
      },
      "properties": {
        "cell": "ABALPPPPA",
        "label": "ABALPPPPA",
        "level": 3,
        "pos": "-86380.66805704056,-61374.73829391003",
        "weight": "541.7035421768057"
      }
    },
    {
      "type": "Feature",
      "id": "536",
      "geometry": {
        "type": "Point",
        "coordinates": [
          -46.059923,
          -25.485407
        ]
      },
      "properties": {
        "cell": "ABALPPPPP",
        "label": "ABALPPPPP",
        "level": 3,
        "pos": "-87862.53513233826,-57288.221305665706",
        "weight": "559.2016685562278"
      }
    },
    {
      "type": "Feature",
      "id": "594",
      "geometry": {
        "type": "Point",
        "coordinates": [
          -12.878797,
          -5.555069
        ]
      },
      "properties": {
        "cell": "ABALPAAAAA",
        "label": "ABALPAAAAA",
        "level": 2,
        "pos": "-24051.269854319202,-14517.990765147613",
        "weight": "770.5065953309803"
      }
    },
    {
      "type": "Feature",
      "id": "593",
      "geometry": {
        "type": "Point",
        "coordinates": [
          -12.598268,
          -7.294427
        ]
      },
      "properties": {
        "cell": "ABALPAAAAP",
        "label": "ABALPAAAAP",
        "level": 2,
        "pos": "-23511.782115185535,-18116.24554443349",
        "weight": "770.5065953309803"
      }
    },
    {
      "type": "Feature",
      "id": "591",
      "geometry": {
        "type": "Point",
        "coordinates": [
          -10.381053,
          -7.4512
        ]
      },
      "properties": {
        "cell": "ABALPAAAPA",
        "label": "ABALPAAAPA",
        "level": 1,
        "pos": "-19247.811976314435,-18441.21161804082",
        "weight": "793.0531396763304"
      }
    },
    {
      "type": "Feature",
      "id": "590",
      "geometry": {
        "type": "Point",
        "coordinates": [
          -9.971651,
          -9.135604
        ]
      },
      "properties": {
        "cell": "ABALPAAAPP",
        "label": "ABALPAAAPP",
        "level": 2,
        "pos": "-18460.477687353592,-21940.48754466157",
        "weight": "782.5021393545134"
      }
    },
    {
      "type": "Feature",
      "id": "587",
      "geometry": {
        "type": "Point",
        "coordinates": [
          -20.014308,
          -11.384655
        ]
      },
      "properties": {
        "cell": "ABALPAAPAA",
        "label": "ABALPAAPAA",
        "level": 1,
        "pos": "-37773.70980679279,-26639.216788795493",
        "weight": "806.1663849181849"
      }
    },
    {
      "type": "Feature",
      "id": "586",
      "geometry": {
        "type": "Point",
        "coordinates": [
          -19.92345,
          -9.399056
        ]
      },
      "properties": {
        "cell": "ABALPAAPAP",
        "label": "ABALPAAPAP",
        "level": 2,
        "pos": "-37598.975592319526,-22489.22111477028",
        "weight": "732.2386763209495"
      }
    },
    {
      "type": "Feature",
      "id": "584",
      "geometry": {
        "type": "Point",
        "coordinates": [
          -15.407818,
          -6.40687
        ]
      },
      "properties": {
        "cell": "ABALPAAPPA",
        "label": "ABALPAAPPA",
        "level": 1,
        "pos": "-28914.881412862807,-16278.600566181649",
        "weight": "796.2477685512791"
      }
    },
    {
      "type": "Feature",
      "id": "583",
      "geometry": {
        "type": "Point",
        "coordinates": [
          -17.306395,
          -6.886491
        ]
      },
      "properties": {
        "cell": "ABALPAAPPP",
        "label": "ABALPAAPPP",
        "level": 2,
        "pos": "-32566.07085397102,-17271.210688576564",
        "weight": "761.6618887990725"
      }
    },
    {
      "type": "Feature",
      "id": "579",
      "geometry": {
        "type": "Point",
        "coordinates": [
          -17.376261,
          -0.846214
        ]
      },
      "properties": {
        "cell": "ABALPAPAAA",
        "label": "ABALPAPAAA",
        "level": 2,
        "pos": "-32700.43128993994,-4820.328535788536",
        "weight": "731.2119138795813"
      }
    },
    {
      "type": "Feature",
      "id": "578",
      "geometry": {
        "type": "Point",
        "coordinates": [
          -16.198835,
          -1.873393
        ]
      },
      "properties": {
        "cell": "ABALPAPAAP",
        "label": "ABALPAPAAP",
        "level": 1,
        "pos": "-30436.096680258048,-6932.479581084785",
        "weight": "817.3583412838144"
      }
    },
    {
      "type": "Feature",
      "id": "576",
      "geometry": {
        "type": "Point",
        "coordinates": [
          -21.957583,
          -1.699508
        ]
      },
      "properties": {
        "cell": "ABALPAPAPA",
        "label": "ABALPAPAPA",
        "level": 3,
        "pos": "-41510.8628538375,-6574.857171681122",
        "weight": "613.2161775165137"
      }
    },
    {
      "type": "Feature",
      "id": "574",
      "geometry": {
        "type": "Point",
        "coordinates": [
          -19.844438,
          -0.015357
        ]
      },
      "properties": {
        "cell": "ABALPAPAPP",
        "label": "ABALPAPAPP",
        "level": 2,
        "pos": "-37447.02507481881,-3112.3141702191842",
        "weight": "776.5281920865599"
      }
    },
    {
      "type": "Feature",
      "id": "571",
      "geometry": {
        "type": "Point",
        "coordinates": [
          -29.984463,
          -1.536331
        ]
      },
      "properties": {
        "cell": "ABALPAPPAA",
        "label": "ABALPAPPAA",
        "level": 2,
        "pos": "-56947.51099104992,-6239.29296628475",
        "weight": "711.4444501977845"
      }
    },
    {
      "type": "Feature",
      "id": "569",
      "geometry": {
        "type": "Point",
        "coordinates": [
          -28.278272,
          -0.957357
        ]
      },
      "properties": {
        "cell": "ABALPAPPAP",
        "label": "ABALPAPPAP",
        "level": 2,
        "pos": "-53666.29694889904,-5048.828328869682",
        "weight": "703.5524019532929"
      }
    },
    {
      "type": "Feature",
      "id": "567",
      "geometry": {
        "type": "Point",
        "coordinates": [
          -23.78268,
          0.760242
        ]
      },
      "properties": {
        "cell": "ABALPAPPPA",
        "label": "ABALPAPPPA",
        "level": 1,
        "pos": "-45020.74356477213,-1517.8954927642944",
        "weight": "868.0034521338229"
      }
    },
    {
      "type": "Feature",
      "id": "566",
      "geometry": {
        "type": "Point",
        "coordinates": [
          -25.60082,
          0.600153
        ]
      },
      "properties": {
        "cell": "ABALPAPPPP",
        "label": "ABALPAPPPP",
        "level": 3,
        "pos": "-48517.244725731376,-1847.0063764934246",
        "weight": "667.6564256211494"
      }
    },
    {
      "type": "Feature",
      "id": "1269",
      "geometry": {
        "type": "Point",
        "coordinates": [
          -11.813757,
          -4.902884
        ]
      },
      "properties": {
        "cell": "ABALPAAAAAA",
        "label": "epithelium",
        "level": 4,
        "pos": "-22003.074483939767,-13171.713727518452",
        "weight": "307.8819331451497"
      }
    },
    {
      "type": "Feature",
      "id": "1268",
      "geometry": {
        "type": "Point",
        "coordinates": [
          -12.414047,
          -4.440851
        ]
      },
      "properties": {
        "cell": "ABALPAAAAAP",
        "label": "muscle",
        "level": 4,
        "pos": "-23157.500114847262,-12218.764826921653",
        "weight": "307.8819331451497"
      }
    },
    {
      "type": "Feature",
      "id": "1267",
      "geometry": {
        "type": "Point",
        "coordinates": [
          -12.344207,
          -7.899334
        ]
      },
      "properties": {
        "cell": "ABALPAAAAPA",
        "label": "muscle",
        "level": 4,
        "pos": "-23023.193206454704,-19370.7492373795",
        "weight": "307.8819331451497"
      }
    },
    {
      "type": "Feature",
      "id": "1266",
      "geometry": {
        "type": "Point",
        "coordinates": [
          -11.83062,
          -6.74837
        ]
      },
      "properties": {
        "cell": "ABALPAAAAPP",
        "label": "ABALPAAAAPP",
        "level": 4,
        "pos": "-22035.500281802968,-16985.25643797833",
        "weight": "307.8819331451497"
      }
    },
    {
      "type": "Feature",
      "id": "1265",
      "geometry": {
        "type": "Point",
        "coordinates": [
          -9.578087,
          -6.374248
        ]
      },
      "properties": {
        "cell": "ABALPAAAPAA",
        "label": "muscle",
        "level": 3,
        "pos": "-17703.609434396807,-16211.11614595792",
        "weight": "329.67746684502674"
      }
    },
    {
      "type": "Feature",
      "id": "1264",
      "geometry": {
        "type": "Point",
        "coordinates": [
          -10.43899,
          -6.071497
        ]
      },
      "properties": {
        "cell": "ABALPAAAPAP",
        "label": "ABALPAAAPAP",
        "level": 3,
        "pos": "-19359.226168954185,-15585.080430515753",
        "weight": "329.67746684502674"
      }
    },
    {
      "type": "Feature",
      "id": "1263",
      "geometry": {
        "type": "Point",
        "coordinates": [
          -8.804115,
          -8.803997
        ]
      },
      "properties": {
        "cell": "ABALPAAAPPA",
        "label": "ABALPAAAPPA",
        "level": 3,
        "pos": "-16215.171331649162,-21250.37799068718",
        "weight": "323.5047034233665"
      }
    },
    {
      "type": "Feature",
      "id": "1262",
      "geometry": {
        "type": "Point",
        "coordinates": [
          -9.204002,
          -8.157277
        ]
      },
      "properties": {
        "cell": "ABALPAAAPPP",
        "label": "neuron",
        "level": 3,
        "pos": "-16984.199568904423,-19906.240298782035",
        "weight": "323.5047034233665"
      }
    },
    {
      "type": "Feature",
      "id": "1261",
      "geometry": {
        "type": "Point",
        "coordinates": [
          -19.535258,
          -11.847787
        ]
      },
      "properties": {
        "cell": "ABALPAAPAAA",
        "label": "ABALPAAPAAA",
        "level": 4,
        "pos": "-36852.4368144235,-27611.16683550951",
        "weight": "313.7606815691681"
      }
    },
    {
      "type": "Feature",
      "id": "1260",
      "geometry": {
        "type": "Point",
        "coordinates": [
          -20.741117,
          -11.02453
        ]
      },
      "properties": {
        "cell": "ABALPAAPAAP",
        "label": "epithelium",
        "level": 4,
        "pos": "-39171.44513382494,-25884.543664333585",
        "weight": "313.7606815691681"
      }
    },
    {
      "type": "Feature",
      "id": "1259",
      "geometry": {
        "type": "Point",
        "coordinates": [
          -20.286881,
          -9.973374
        ]
      },
      "properties": {
        "cell": "ABALPAAPAPA",
        "label": "marginal",
        "level": 4,
        "pos": "-38297.895073233376,-23686.902802327244",
        "weight": "270.45697535716573"
      }
    },
    {
      "type": "Feature",
      "id": "1258",
      "geometry": {
        "type": "Point",
        "coordinates": [
          -20.160804,
          -8.673254
        ]
      },
      "properties": {
        "cell": "ABALPAAPAPP",
        "label": "muscle",
        "level": 4,
        "pos": "-38055.43726625976,-20978.46078066969",
        "weight": "270.45697535716573"
      }
    },
    {
      "type": "Feature",
      "id": "1257",
      "geometry": {
        "type": "Point",
        "coordinates": [
          -15.22185,
          -5.291856
        ]
      },
      "properties": {
        "cell": "ABALPAAPPAA",
        "label": "other",
        "level": 4,
        "pos": "-28557.241453227158,-13974.477489839479",
        "weight": "305.42626186023176"
      }
    },
    {
      "type": "Feature",
      "id": "1256",
      "geometry": {
        "type": "Point",
        "coordinates": [
          -14.588909,
          -5.759836
        ]
      },
      "properties": {
        "cell": "ABALPAAPPAP",
        "label": "ABALPAAPPAP",
        "level": 4,
        "pos": "-27340.015504587678,-14940.976107651675",
        "weight": "305.42626186023176"
      }
    },
    {
      "type": "Feature",
      "id": "1255",
      "geometry": {
        "type": "Point",
        "coordinates": [
          -18.114831,
          -6.533048
        ]
      },
      "properties": {
        "cell": "ABALPAAPPPA",
        "label": "ABALPAAPPPA",
        "level": 4,
        "pos": "-34120.78789928622,-16539.63535979219",
        "weight": "285.17049290713373"
      }
    },
    {
      "type": "Feature",
      "id": "1254",
      "geometry": {
        "type": "Point",
        "coordinates": [
          -17.276438,
          -5.974258
        ]
      },
      "properties": {
        "cell": "ABALPAAPPPP",
        "label": "ABALPAAPPPP",
        "level": 4,
        "pos": "-32508.45973110476,-15384.081707936608",
        "weight": "285.17049290713373"
      }
    },
    {
      "type": "Feature",
      "id": "1253",
      "geometry": {
        "type": "Point",
        "coordinates": [
          -16.625371,
          -0.23567
        ]
      },
      "properties": {
        "cell": "ABALPAPAAAA",
        "label": "ABALPAPAAAA",
        "level": 4,
        "pos": "-31256.379822765946,-3565.20072714204",
        "weight": "269.8768724020319"
      }
    },
    {
      "type": "Feature",
      "id": "1252",
      "geometry": {
        "type": "Point",
        "coordinates": [
          -17.273688,
          0.242205
        ]
      },
      "properties": {
        "cell": "ABALPAPAAAP",
        "label": "ABALPAPAAAP",
        "level": 4,
        "pos": "-32503.16896660839,-2582.8450057658592",
        "weight": "269.8768724020319"
      }
    },
    {
      "type": "Feature",
      "id": "1251",
      "geometry": {
        "type": "Point",
        "coordinates": [
          -15.340069,
          -1.013656
        ]
      },
      "properties": {
        "cell": "ABALPAPAAPA",
        "label": "other",
        "level": 3,
        "pos": "-28784.587344318454,-5164.5804925615985",
        "weight": "320.3636936742335"
      }
    },
    {
      "type": "Feature",
      "id": "1250",
      "geometry": {
        "type": "Point",
        "coordinates": [
          -14.967185,
          -1.729306
        ]
      },
      "properties": {
        "cell": "ABALPAPAAPP",
        "label": "ABALPAPAAPP",
        "level": 3,
        "pos": "-28067.48804737625,-6636.143265979816",
        "weight": "320.3636936742335"
      }
    },
    {
      "type": "Feature",
      "id": "1249",
      "geometry": {
        "type": "Point",
        "coordinates": [
          -22.139808,
          -2.466026
        ]
      },
      "properties": {
        "cell": "ABALPAPAPAA",
        "label": "ABALPAPAPAA",
        "level": 4,
        "pos": "-41861.30237568691,-8151.60802929878",
        "weight": "243.44630403295508"
      }
    },
    {
      "type": "Feature",
      "id": "575",
      "geometry": {
        "type": "Point",
        "coordinates": [
          -23.347548,
          -1.717164
        ]
      },
      "properties": {
        "cell": "ABALPAPAPAP",
        "label": "ABALPAPAPAP",
        "level": 1,
        "pos": "-44183.93377191387,-6611.170907858614",
        "weight": "826.1057068056076"
      }
    },
    {
      "type": "Feature",
      "id": "1246",
      "geometry": {
        "type": "Point",
        "coordinates": [
          -19.08889,
          0.831915
        ]
      },
      "properties": {
        "cell": "ABALPAPAPPA",
        "label": "ABALPAPAPPA",
        "level": 4,
        "pos": "-35994.023891987315,-1370.5492778236364",
        "weight": "309.6177242102313"
      }
    },
    {
      "type": "Feature",
      "id": "1245",
      "geometry": {
        "type": "Point",
        "coordinates": [
          -19.784967,
          1.114168
        ]
      },
      "properties": {
        "cell": "ABALPAPAPPP",
        "label": "ABALPAPAPPP",
        "level": 4,
        "pos": "-37332.66081646643,-790.2470028219107",
        "weight": "309.6177242102313"
      }
    },
    {
      "type": "Feature",
      "id": "1244",
      "geometry": {
        "type": "Point",
        "coordinates": [
          -31.070402,
          -1.925202
        ]
      },
      "properties": {
        "cell": "ABALPAPPAAA",
        "label": "ABALPAPPAAA",
        "level": 4,
        "pos": "-59035.895672260966,-7039.038676587594",
        "weight": "296.8067383991378"
      }
    },
    {
      "type": "Feature",
      "id": "570",
      "geometry": {
        "type": "Point",
        "coordinates": [
          -31.208079,
          -0.014102
        ]
      },
      "properties": {
        "cell": "ABALPAPPAAP",
        "label": "ABALPAPPAAP",
        "level": 1,
        "pos": "-59300.66911043126,-3109.734403378643",
        "weight": "838.1685174481265"
      }
    },
    {
      "type": "Feature",
      "id": "1241",
      "geometry": {
        "type": "Point",
        "coordinates": [
          -28.900303,
          -0.167162
        ]
      },
      "properties": {
        "cell": "ABALPAPPAPA",
        "label": "epithelium",
        "level": 4,
        "pos": "-54862.536192179476,-3424.365072640468",
        "weight": "270.3566473087648"
      }
    },
    {
      "type": "Feature",
      "id": "1240",
      "geometry": {
        "type": "Point",
        "coordinates": [
          -28.199483,
          0.135772
        ]
      },
      "properties": {
        "cell": "ABALPAPPAPP",
        "label": "marginal",
        "level": 4,
        "pos": "-53514.78342218927,-2801.6437034229166",
        "weight": "270.3566473087648"
      }
    },