{
  "type": "FeatureCollection",
  "features": [
    {
      "type": "Feature",
      "id": "667",
      "geometry": {
        "type": "Point",
        "coordinates": [
          4.874479,
          -3.475036
        ]
      },
      "properties": {
        "label": "zygote",
        "level": 4,
        "pos": "18156.134000000002,-11951.106",
        "weight": "265.3383278183109"
      }
    },
    {
      "type": "Feature",
      "id": "5",
      "geometry": {
        "type": "Point",
        "coordinates": [
          2.188354,
          -2.180977
        ]
      },
      "properties": {
        "label": "P0A",
        "level": 3,
        "pos": "10657.449,-8349.528",
        "weight": "401.25764635983387"
      }
    },
    {
      "type": "Feature",
      "id": "4",
      "geometry": {
        "type": "Point",
        "coordinates": [
          0.049338,
          -8.385786
        ]
      },
      "properties": {
        "label": "P1",
        "level": 3,
        "pos": "4686.095,-25679.345",
        "weight": "369.8813944987218"
      }
    },
    {
      "type": "Feature",
      "id": "666",
      "geometry": {
        "type": "Point",
        "coordinates": [
          2.769196,
          8.188166
        ]
      },
      "properties": {
        "label": "ABA",
        "level": 3,
        "pos": "12278.954,20553.099",
        "weight": "406.45567827916324"
      }
    },
    {
      "type": "Feature",
      "id": "424",
      "geometry": {
        "type": "Point",
        "coordinates": [
          5.157041,
          0.041355
        ]
      },
      "properties": {
        "label": "ABP",
        "level": 3,
        "pos": "18944.942000000003,-2170.61",
        "weight": "397.14832110825563"
      }
    },
    {
      "type": "Feature",
      "id": "107",
      "geometry": {
        "type": "Point",
        "coordinates": [
          -1.606888,
          -12.035324
        ]
      },
      "properties": {
        "label": "EMS",
        "level": 3,
        "pos": "62.517,-35989.144",
        "weight": "375.33162862967407"
      }
    },
    {
      "type": "Feature",
      "id": "3",
      "geometry": {
        "type": "Point",
        "coordinates": [
          -3.61613,
          -14.055592
        ]
      },
      "properties": {
        "label": "P2",
        "level": 3,
        "pos": "-5546.553,-41754.016",
        "weight": "387.9075674026117"
      }
    },
    {
      "type": "Feature",
      "id": "665",
      "geometry": {
        "type": "Point",
        "coordinates": [
          -1.735311,
          9.238538
        ]
      },
      "properties": {
        "label": "ABAL",
        "level": 3,
        "pos": "-295.991,23506.965999999997",
        "weight": "343.53601754508077"
      }
    },
    {
      "type": "Feature",
      "id": "531",
      "geometry": {
        "type": "Point",
        "coordinates": [
          -2.626706,
          11.612592
        ]
      },
      "properties": {
        "label": "ABAR",
        "level": 3,
        "pos": "-2784.438,30217.464",
        "weight": "335.55124388268234"
      }
    },
    {
      "type": "Feature",
      "id": "423",
      "geometry": {
        "type": "Point",
        "coordinates": [
          8.095688,
          -0.138905
        ]
      },
      "properties": {
        "label": "ABPL",
        "level": 3,
        "pos": "27148.565000000002,-2671.6839999999997",
        "weight": "334.3801099665669"
      }
    },
    {
      "type": "Feature",
      "id": "308",
      "geometry": {
        "type": "Point",
        "coordinates": [
          12.770895,
          -2.924539
        ]
      },
      "properties": {
        "label": "ABPR",
        "level": 3,
        "pos": "40200.044,-10418.485",
        "weight": "385.74784893252496"
      }
    },
    {
      "type": "Feature",
      "id": "117",
      "geometry": {
        "type": "Point",
        "coordinates": [
          6.905701,
          -11.351051
        ]
      },
      "properties": {
        "label": "E",
        "level": 4,
        "pos": "23826.555,-34046.731999999996",
        "weight": "299.53873416094325"
      }
    },
    {
      "type": "Feature",
      "id": "97",
      "geometry": {
        "type": "Point",
        "coordinates": [
          4.098435,
          -12.204837
        ]
      },
      "properties": {
        "label": "MS",
        "level": 3,
        "pos": "15989.704,-36471.085",
        "weight": "350.3917304282712"
      }
    },
    {
      "type": "Feature",
      "id": "183",
      "geometry": {
        "type": "Point",
        "coordinates": [
          -0.593998,
          -15.569829
        ]
      },
      "properties": {
        "label": "C",
        "level": 3,
        "pos": "2890.142,-46108.015",
        "weight": "417.02537674136"
      }
    },
    {
      "type": "Feature",
      "id": "2",
      "geometry": {
        "type": "Point",
        "coordinates": [
          -7.873625,
          -22.64304
        ]
      },
      "properties": {
        "label": "P3",
        "level": 3,
        "pos": "-17431.916999999998,-66932.199",
        "weight": "377.91272592614354"
      }
    },
    {
      "type": "Feature",
      "id": "664",
      "geometry": {
        "type": "Point",
        "coordinates": [
          -2.384339,
          5.97541
        ]
      },
      "properties": {
        "label": "ABALA",
        "level": 3,
        "pos": "-2107.842,14354.583",
        "weight": "320.0160675115433"
      }
    },
    {
      "type": "Feature",
      "id": "599",
      "geometry": {
        "type": "Point",
        "coordinates": [
          -3.933339,
          8.013535
        ]
      },
      "properties": {
        "label": "ABALP",
        "level": 4,
        "pos": "-6432.08,20062.779",
        "weight": "309.5329106667296"
      }
    },
    {
      "type": "Feature",
      "id": "530",
      "geometry": {
        "type": "Point",
        "coordinates": [
          -10.036963,
          13.91969
        ]
      },
      "properties": {
        "label": "ABARA",
        "level": 3,
        "pos": "-23471.170000000002,36793.58",
        "weight": "363.3576780317289"
      }
    },
    {
      "type": "Feature",
      "id": "463",
      "geometry": {
        "type": "Point",
        "coordinates": [
          -6.806805,
          17.557261
        ]
      },
      "properties": {
        "label": "ABARP",
        "level": 4,
        "pos": "-14453.751,47300.886",
        "weight": "311.7810813688932"
      }
    },
    {
      "type": "Feature",
      "id": "422",
      "geometry": {
        "type": "Point",
        "coordinates": [
          6.735915,
          8.852696
        ]
      },
      "properties": {
        "label": "ABPLA",
        "level": 3,
        "pos": "23352.582000000002,22420.926000000003",
        "weight": "376.8996794250619"
      }
    },
    {
      "type": "Feature",
      "id": "373",
      "geometry": {
        "type": "Point",
        "coordinates": [
          12.41957,
          2.454015
        ]
      },
      "properties": {
        "label": "ABPLP",
        "level": 4,
        "pos": "39219.267,4537.994000000001",
        "weight": "294.51577252315536"
      }
    },
    {
      "type": "Feature",
      "id": "307",
      "geometry": {
        "type": "Point",
        "coordinates": [
          14.350131,
          -1.994475
        ]
      },
      "properties": {
        "label": "ABPRA",
        "level": 3,
        "pos": "44608.686,-7830.759",
        "weight": "357.4822494580113"
      }
    },
    {
      "type": "Feature",
      "id": "249",
      "geometry": {
        "type": "Point",
        "coordinates": [
          22.955823,
          -5.878991
        ]
      },
      "properties": {
        "label": "ABPRP",
        "level": 3,
        "pos": "68632.637,-18656.251",
        "weight": "352.0599118228514"
      }
    },
    {
      "type": "Feature",
      "id": "116",
      "geometry": {
        "type": "Point",
        "coordinates": [
          16.698099,
          -9.08566
        ]
      },
      "properties": {
        "label": "EA",
        "level": 3,
        "pos": "51163.358,-27647.652000000002",
        "weight": "459.2797065850378"
      }
    },
    {
      "type": "Feature",
      "id": "106",
      "geometry": {
        "type": "Point",
        "coordinates": [
          12.349694,
          -11.668694
        ]
      },
      "properties": {
        "label": "EP",
        "level": 3,
        "pos": "39024.197,-34947.806",
        "weight": "478.2929221424888"
      }
    },
    {
      "type": "Feature",
      "id": "96",
      "geometry": {
        "type": "Point",
        "coordinates": [
          6.216606,
          -14.0934
        ]
      },
      "properties": {
        "label": "MSA",
        "level": 3,
        "pos": "21902.861,-41862.369999999995",
        "weight": "384.40078578570325"
      }
    },
    {
      "type": "Feature",
      "id": "50",
      "geometry": {
        "type": "Point",
        "coordinates": [
          2.483031,
          -15.457667
        ]
      },
      "properties": {
        "label": "MSP",
        "level": 3,
        "pos": "11480.076000000001,-45784.435000000005",
        "weight": "379.86843158338957"
      }
    },
    {
      "type": "Feature",
      "id": "182",
      "geometry": {
        "type": "Point",
        "coordinates": [
          0.123661,
          -21.772326
        ]
      },
      "properties": {
        "label": "CA",
        "level": 3,
        "pos": "4893.584,-64317.897000000004",
        "weight": "386.57635118072886"
      }
    },
    {
      "type": "Feature",
      "id": "159",
      "geometry": {
        "type": "Point",
        "coordinates": [
          -2.108677,
          -18.37831
        ]
      },
      "properties": {
        "label": "CP",
        "level": 3,
        "pos": "-1338.286,-54271.341",
        "weight": "396.1257600491351"
      }
    },
    {
      "type": "Feature",
      "id": "136",
      "geometry": {
        "type": "Point",
        "coordinates": [
          -7.504837,
          -23.431409
        ]
      },
      "properties": {
        "label": "D",
        "level": 3,
        "pos": "-16402.401,-69313.582",
        "weight": "481.9592354584005"
      }
    },
    {
      "type": "Feature",
      "id": "1",
      "geometry": {
        "type": "Point",
        "coordinates": [
          -13.591024,
          -30.436639
        ]
      },
      "properties": {
        "label": "P4",
        "level": 2,
        "pos": "-33392.807,-91176.00899999999",
        "weight": "770.2803188841891"
      }
    },
    {
      "type": "Feature",
      "id": "663",
      "geometry": {
        "type": "Point",
        "coordinates": [
          -3.070661,
          -0.705031
        ]
      },
      "properties": {
        "label": "ABALAA",
        "level": 3,
        "pos": "-4023.803,-4245.405",
        "weight": "361.64295494476426"
      }
    },
    {
      "type": "Feature",
      "id": "633",
      "geometry": {
        "type": "Point",
        "coordinates": [
          -3.461207,
          1.994398
        ]
      },
      "properties": {
        "label": "ABALAP",
        "level": 3,
        "pos": "-5114.058,3259.424",
        "weight": "344.64694478444517"
      }
    },
    {
      "type": "Feature",
      "id": "598",
      "geometry": {
        "type": "Point",
        "coordinates": [
          -7.712694,
          5.176332
        ]
      },
      "properties": {
        "label": "ABALPA",
        "level": 3,
        "pos": "-16982.655000000002,12122.795",
        "weight": "439.9423987006719"
      }
    },
    {
      "type": "Feature",
      "id": "565",
      "geometry": {
        "type": "Point",
        "coordinates": [
          -12.132771,
          5.519191
        ]
      },
      "properties": {
        "label": "ABALPP",
        "level": 3,
        "pos": "-29321.896,13080.006",
        "weight": "457.3386670123698"
      }
    },
    {
      "type": "Feature",
      "id": "529",
      "geometry": {
        "type": "Point",
        "coordinates": [
          -14.5979,
          11.715089
        ]
      },
      "properties": {
        "label": "ABARAA",
        "level": 3,
        "pos": "-36203.643,30508.379999999997",
        "weight": "411.79179999706014"
      }
    },
    {
      "type": "Feature",
      "id": "497",
      "geometry": {
        "type": "Point",
        "coordinates": [
          -14.750789,
          14.27933
        ]
      },
      "properties": {
        "label": "ABARAP",
        "level": 3,
        "pos": "-36630.452,37824.333000000006",
        "weight": "414.45072823328263"
      }
    },
    {
      "type": "Feature",
      "id": "462",
      "geometry": {
        "type": "Point",
        "coordinates": [
          -13.445156,
          19.450867
        ]
      },
      "properties": {
        "label": "ABARPA",
        "level": 3,
        "pos": "-32985.602,52851.846000000005",
        "weight": "461.07330489856554"
      }
    },
    {
      "type": "Feature",
      "id": "441",
      "geometry": {
        "type": "Point",
        "coordinates": [
          -14.983731,
          23.722562
        ]
      },
      "properties": {
        "label": "ABARPP",
        "level": 3,
        "pos": "-37280.737,65625.488",
        "weight": "460.5457913469437"
      }
    },
    {
      "type": "Feature",
      "id": "421",
      "geometry": {
        "type": "Point",
        "coordinates": [
          6.308374,
          11.559419
        ]
      },
      "properties": {
        "label": "ABPLAA",
        "level": 3,
        "pos": "22159.038,30066.579",
        "weight": "441.73351602832406"
      }
    },
    {
      "type": "Feature",
      "id": "399",
      "geometry": {
        "type": "Point",
        "coordinates": [
          7.442247,
          13.345684
        ]
      },
      "properties": {
        "label": "ABPLAP",
        "level": 3,
        "pos": "25324.4,35151.744",
        "weight": "438.7432430572096"
      }
    },
    {
      "type": "Feature",
      "id": "372",
      "geometry": {
        "type": "Point",
        "coordinates": [
          13.737049,
          6.512198
        ]
      },
      "properties": {
        "label": "ABPLPA",
        "level": 3,
        "pos": "42897.187000000005,15855.612000000001",
        "weight": "444.48784884356013"
      }
    },
    {
      "type": "Feature",
      "id": "340",
      "geometry": {
        "type": "Point",
        "coordinates": [
          15.08796,
          3.169379
        ]
      },
      "properties": {
        "label": "ABPLPP",
        "level": 3,
        "pos": "46668.444,6528.91",
        "weight": "438.1118488623047"
      }
    },
    {
      "type": "Feature",
      "id": "306",
      "geometry": {
        "type": "Point",
        "coordinates": [
          21.130477,
          -2.938102
        ]
      },
      "properties": {
        "label": "ABPRAA",
        "level": 3,
        "pos": "63536.945,-10456.237",
        "weight": "408.7600507070112"
      }
    },
    {
      "type": "Feature",
      "id": "275",
      "geometry": {
        "type": "Point",
        "coordinates": [
          24.541679,
          -4.457298
        ]
      },
      "properties": {
        "label": "ABPRAP",
        "level": 3,
        "pos": "73059.772,-14688.11",
        "weight": "411.65484790717835"
      }
    },
    {
      "type": "Feature",
      "id": "248",
      "geometry": {
        "type": "Point",
        "coordinates": [
          33.343117,
          -4.159716
        ]
      },
      "properties": {
        "label": "ABPRPA",
        "level": 3,
        "pos": "97630.173,-13858.573",
        "weight": "399.42530829456035"
      }
    },
    {
      "type": "Feature",
      "id": "215",
      "geometry": {
        "type": "Point",
        "coordinates": [
          33.730119,
          -6.218033
        ]
      },
      "properties": {
        "label": "ABPRPP",
        "level": 3,
        "pos": "98710.544,-19603.974000000002",
        "weight": "396.5741646373558"
      }
    },
    {
      "type": "Feature",
      "id": "662",
      "geometry": {
        "type": "Point",
        "coordinates": [
          -6.178736,
          -9.486145
        ]
      },
      "properties": {
        "label": "ABALAAA",
        "level": 3,
        "pos": "-12700.412999999999,-28775.666",
        "weight": "364.54492323484664"
      }
    },
    {
      "type": "Feature",
      "id": "647",
      "geometry": {
        "type": "Point",
        "coordinates": [
          -8.173252,
          -5.693637
        ]
      },
      "properties": {
        "label": "ABALAAP",
        "level": 3,
        "pos": "-18268.374,-18138.380999999998",
        "weight": "370.88412360988303"
      }
    },
    {
      "type": "Feature",
      "id": "632",
      "geometry": {
        "type": "Point",
        "coordinates": [
          -10.097315,
          -6.271379
        ]
      },
      "properties": {
        "label": "ABALAPA",
        "level": 3,
        "pos": "-23639.646,-19753.14",
        "weight": "354.569915809632"
      }
    },
    {
      "type": "Feature",
      "id": "615",
      "geometry": {
        "type": "Point",
        "coordinates": [
          -8.338868,
          -1.788947
        ]
      },
      "properties": {
        "label": "ABALAPP",
        "level": 3,
        "pos": "-18730.709000000003,-7259.138",
        "weight": "358.431703838759"
      }
    },
    {
      "type": "Feature",
      "id": "597",
      "geometry": {
        "type": "Point",
        "coordinates": [
          -9.849603,
          0.583507
        ]
      },
      "properties": {
        "label": "ABALPAA",
        "level": 3,
        "pos": "-22948.132999999998,-663.5490000000001",
        "weight": "419.10910745657867"
      }
    },
    {
      "type": "Feature",
      "id": "582",
      "geometry": {
        "type": "Point",
        "coordinates": [
          -17.140768,
          0.933889
        ]
      },
      "properties": {
        "label": "ABALPAP",
        "level": 3,
        "pos": "-43302.401000000005,310.5",
        "weight": "435.73909811411266"
      }
    },
    {
      "type": "Feature",
      "id": "564",
      "geometry": {
        "type": "Point",
        "coordinates": [
          -22.123608,
          3.440426
        ]
      },
      "properties": {
        "label": "ABALPPA",
        "level": 3,
        "pos": "-57212.667,7283.604",
        "weight": "501.9854272314448"
      }
    },
    {
      "type": "Feature",
      "id": "550",
      "geometry": {
        "type": "Point",
        "coordinates": [
          -19.317178,
          4.207825
        ]
      },
      "properties": {
        "label": "ABALPPP",
        "level": 3,
        "pos": "-49378.138999999996,9421.527",
        "weight": "451.9360180832789"
      }
    },
    {
      "type": "Feature",
      "id": "528",
      "geometry": {
        "type": "Point",
        "coordinates": [
          -17.063896,
          5.161757
        ]
      },
      "properties": {
        "label": "ABARAAA",
        "level": 3,
        "pos": "-43087.804,12082.112000000001",
        "weight": "392.87178127644285"
      }
    },
    {
      "type": "Feature",
      "id": "514",
      "geometry": {
        "type": "Point",
        "coordinates": [
          -24.931064,
          11.855205
        ]
      },
      "properties": {
        "label": "ABARAAP",
        "level": 3,
        "pos": "-65050.055,30906.25",
        "weight": "392.5857544251314"
      }
    },
    {
      "type": "Feature",
      "id": "496",
      "geometry": {
        "type": "Point",
        "coordinates": [
          -24.812467,
          13.327989
        ]
      },
      "properties": {
        "label": "ABARAPA",
        "level": 3,
        "pos": "-64718.981999999996,35101.194",
        "weight": "394.9031949317525"
      }
    },
    {
      "type": "Feature",
      "id": "480",
      "geometry": {
        "type": "Point",
        "coordinates": [
          -18.795655,
          15.566342
        ]
      },
      "properties": {
        "label": "ABARAPP",
        "level": 3,
        "pos": "-47922.242,41526.817",
        "weight": "400.0027167093548"
      }
    },
    {
      "type": "Feature",
      "id": "461",
      "geometry": {
        "type": "Point",
        "coordinates": [
          -18.493477,
          20.900545
        ]
      },
      "properties": {
        "label": "ABARPAA",
        "level": 3,
        "pos": "-47078.674999999996,57145.119",
        "weight": "461.0140526776518"
      }
    },
    {
      "type": "Feature",
      "id": "451",
      "geometry": {
        "type": "Point",
        "coordinates": [
          -20.318799,
          26.992644
        ]
      },
      "properties": {
        "label": "ABARPAP",
        "level": 3,
        "pos": "-52174.298,75686.537",
        "weight": "459.3900442053685"
      }
    },
    {
      "type": "Feature",
      "id": "440",
      "geometry": {
        "type": "Point",
        "coordinates": [
          -20.683019,
          31.326845
        ]
      },
      "properties": {
        "label": "ABARPPA",
        "level": 3,
        "pos": "-53191.074,89488.219",
        "weight": "459.6170980887703"
      }
    },
    {
      "type": "Feature",
      "id": "432",
      "geometry": {
        "type": "Point",
        "coordinates": [
          -19.001735,
          32.045926
        ]
      },
      "properties": {
        "label": "ABARPPP",
        "level": 3,
        "pos": "-48497.536,91837.24399999999",
        "weight": "459.6170980887703"
      }
    },
    {
      "type": "Feature",
      "id": "661",
      "geometry": {
        "type": "Point",
        "coordinates": [
          -11.030997,
          -18.767606
        ]
      },
      "properties": {
        "label": "ABALAAAA",
        "level": 3,
        "pos": "-26246.148,-55412.929",
        "weight": "487.42312827560596"
      }
    },
    {
      "type": "Feature",
      "id": "654",
      "geometry": {
        "type": "Point",
        "coordinates": [
          -10.530111,
          -17.267905
        ]
      },
      "properties": {
        "label": "ABALAAAP",
        "level": 3,
        "pos": "-24847.859,-51029.061",
        "weight": "492.0237225474805"
      }
    },
    {
      "type": "Feature",
      "id": "646",
      "geometry": {
        "type": "Point",
        "coordinates": [
          -8.084512,
          -9.939015
        ]
      },
      "properties": {
        "label": "ABALAAPA",
        "level": 3,
        "pos": "-18020.639,-30052.826",
        "weight": "500.64439611106025"
      }
    },
    {
      "type": "Feature",
      "id": "640",
      "geometry": {
        "type": "Point",
        "coordinates": [
          -14.090333,
          -13.898096
        ]
      },
      "properties": {
        "label": "ABALAAPP",
        "level": 3,
        "pos": "-34786.701,-41302.874",
        "weight": "468.6527215288963"
      }
    },
    {
      "type": "Feature",
      "id": "631",
      "geometry": {
        "type": "Point",
        "coordinates": [
          -16.516539,
          -12.771047
        ]
      },
      "properties": {
        "label": "ABALAPAA",
        "level": 3,
        "pos": "-41559.776,-38083.131",
        "weight": "459.8374210220158"
      }
    },
    {
      "type": "Feature",
      "id": "623",
      "geometry": {
        "type": "Point",
        "coordinates": [
          -17.660041,
          -13.63647
        ]
      },
      "properties": {
        "label": "ABALAPAP",
        "level": 3,
        "pos": "-44752.017,-40554.108",
        "weight": "424.6987739395618"
      }
    },
    {
      "type": "Feature",
      "id": "614",
      "geometry": {
        "type": "Point",
        "coordinates": [
          -15.195019,
          -8.64609
        ]
      },
      "properties": {
        "label": "ABALAPPA",
        "level": 3,
        "pos": "-37870.575000000004,-26410.993000000002",
        "weight": "461.3119203175355"
      }
    },
    {
      "type": "Feature",
      "id": "608",
      "geometry": {
        "type": "Point",
        "coordinates": [
          -17.319524,
          -8.381397
        ]
      },
      "properties": {
        "label": "ABALAPPP",
        "level": 3,
        "pos": "-43801.415,-25667.019",
        "weight": "403.94333232272595"
      }
    },
    {
      "type": "Feature",
      "id": "596",
      "geometry": {
        "type": "Point",
        "coordinates": [
          -18.304599,
          -6.161954
        ]
      },
      "properties": {
        "label": "ABALPAAA",
        "level": 3,
        "pos": "-46551.386,-19447.171000000002",
        "weight": "399.7113365347953"
      }
    },
    {
      "type": "Feature",
      "id": "589",
      "geometry": {
        "type": "Point",
        "coordinates": [
          -18.62794,
          -5.30285
        ]
      },
      "properties": {
        "label": "ABALPAAP",
        "level": 3,
        "pos": "-47454.042,-17047.077",
        "weight": "376.7630410990609"
      }
    },
    {
      "type": "Feature",
      "id": "581",
      "geometry": {
        "type": "Point",
        "coordinates": [
          -26.82518,
          -4.870972
        ]
      },
      "properties": {
        "label": "ABALPAPA",
        "level": 3,
        "pos": "-70337.739,-15841.825",
        "weight": "371.3411176306346"
      }
    },
    {
      "type": "Feature",
      "id": "573",
      "geometry": {
        "type": "Point",
        "coordinates": [
          -27.284147,
          -2.329241
        ]
      },
      "properties": {
        "label": "ABALPAPP",
        "level": 3,
        "pos": "-71619.007,-8761.984999999999",
        "weight": "390.73652904595895"
      }
    },
    {
      "type": "Feature",
      "id": "563",
      "geometry": {
        "type": "Point",
        "coordinates": [
          -24.94719,
          1.256302
        ]
      },
      "properties": {
        "label": "ABALPPAA",
        "level": 3,
        "pos": "-65095.07600000001,1206.8799999999999",
        "weight": "366.65931308530867"
      }
    },
    {
      "type": "Feature",
      "id": "558",
      "geometry": {
        "type": "Point",
        "coordinates": [
          -27.957595,
          3.651219
        ]
      },
      "properties": {
        "label": "ABALPPAP",
        "level": 4,
        "pos": "-73499.02799999999,7870.665",
        "weight": "286.08592996244937"
      }
    },
    {
      "type": "Feature",
      "id": "549",
      "geometry": {
        "type": "Point",
        "coordinates": [
          -30.265766,
          3.620038
        ]
      },
      "properties": {
        "label": "ABALPPPA",
        "level": 3,
        "pos": "-79942.595,7783.8240000000005",
        "weight": "366.43291174510426"
      }
    },
    {
      "type": "Feature",
      "id": "541",
      "geometry": {
        "type": "Point",
        "coordinates": [
          -29.566613,
          4.554696
        ]
      },
      "properties": {
        "label": "ABALPPPP",
        "level": 4,
        "pos": "-77990.823,10388.563",
        "weight": "264.70571295347423"
      }
    },
    {
      "type": "Feature",
      "id": "660",
      "geometry": {
        "type": "Point",
        "coordinates": [
          -16.891498,
          -26.791548
        ]
      },
      "properties": {
        "label": "ABALAAAAL",
        "level": 3,
        "pos": "-42606.529,-79630.902",
        "weight": "682.160577342576"
      }
    },
    {
      "type": "Feature",
      "id": "657",
      "geometry": {
        "type": "Point",
        "coordinates": [
          -15.026609,
          -23.644856
        ]
      },
      "properties": {
        "label": "ABALAAAAR",
        "level": 2,
        "pos": "-37400.437,-69960.751",
        "weight": "721.4047499094211"
      }
    },
    {
      "type": "Feature",
      "id": "653",
      "geometry": {
        "type": "Point",
        "coordinates": [
          -16.859875,
          -25.32233
        ]
      },
      "properties": {
        "label": "ABALAAAPA",
        "level": 3,
        "pos": "-42518.251,-75084.63100000001",
        "weight": "609.4120922857998"
      }
    },
    {
      "type": "Feature",
      "id": "650",
      "geometry": {
        "type": "Point",
        "coordinates": [
          -13.43557,
          -20.558542
        ]
      },
      "properties": {
        "label": "ABALAAAPP",
        "level": 3,
        "pos": "-32958.840000000004,-60699.769",
        "weight": "609.4120922857998"
      }
    },
    {
      "type": "Feature",
      "id": "645",
      "geometry": {
        "type": "Point",
        "coordinates": [
          -13.248561,
          -18.731745
        ]
      },
      "properties": {
        "label": "ABALAAPAA",
        "level": 3,
        "pos": "-32436.782,-55307.664000000004",
        "weight": "611.8762098283967"
      }
    },
    {
      "type": "Feature",
      "id": "642",
      "geometry": {
        "type": "Point",
        "coordinates": [
          -9.594401,
          -11.908991
        ]
      },
      "properties": {
        "label": "ABALAAPAP",
        "level": 2,
        "pos": "-22235.702,-35630.159999999996",
        "weight": "714.1791837174688"
      }
    },
    {
      "type": "Feature",
      "id": "639",
      "geometry": {
        "type": "Point",
        "coordinates": [
          -18.312755,
          -22.199525
        ]
      },
      "properties": {
        "label": "ABALAAPPA",
        "level": 2,
        "pos": "-46574.162000000004,-65598.52600000001",
        "weight": "726.9350805718749"
      }
    },
    {
      "type": "Feature",
      "id": "637",
      "geometry": {
        "type": "Point",
        "coordinates": [
          -20.305631,
          -22.476601
        ]
      },
      "properties": {
        "label": "ABALAAPPP",
        "level": 3,
        "pos": "-52137.54,-66431.209",
        "weight": "495.909984244756"
      }
    },
    {
      "type": "Feature",
      "id": "630",
      "geometry": {
        "type": "Point",
        "coordinates": [
          -17.806353,
          -18.188001
        ]
      },
      "properties": {
        "label": "ABALAPAAA",
        "level": 3,
        "pos": "-45160.465000000004,-53714.21200000001",
        "weight": "470.2896177531393"
      }
    },
    {
      "type": "Feature",
      "id": "627",
      "geometry": {
        "type": "Point",
        "coordinates": [
          -24.097717,
          -20.65037
        ]
      },
      "properties": {
        "label": "ABALAPAAP",
        "level": 3,
        "pos": "-62723.66499999999,-60972.471",
        "weight": "461.10001955698806"
      }
    },
    {
      "type": "Feature",
      "id": "622",
      "geometry": {
        "type": "Point",
        "coordinates": [
          -26.330684,
          -21.500434
        ]
      },
      "properties": {
        "label": "ABALAPAPA",
        "level": 3,
        "pos": "-68957.295,-63504.828",
        "weight": "567.2191172910996"
      }
    },
    {
      "type": "Feature",
      "id": "619",
      "geometry": {
        "type": "Point",
        "coordinates": [
          -26.70439,
          -20.385775
        ]
      },
      "properties": {
        "label": "ABALAPAPP",
        "level": 3,
        "pos": "-70000.54000000001,-60187.153000000006",
        "weight": "493.9842976681208"
      }
    },
    {
      "type": "Feature",
      "id": "613",
      "geometry": {
        "type": "Point",
        "coordinates": [
          -22.641398,
          -15.950084
        ]
      },
      "properties": {
        "label": "ABALAPPAA",
        "level": 3,
        "pos": "-58658.146,-47206.299",
        "weight": "633.9750434960706"
      }
    },
    {
      "type": "Feature",
      "id": "611",
      "geometry": {
        "type": "Point",
        "coordinates": [
          -24.214236,
          -14.486177
        ]
      },
      "properties": {
        "label": "ABALAPPAP",
        "level": 3,
        "pos": "-63048.937000000005,-42989.041",
        "weight": "476.59404578699167"
      }
    },
    {
      "type": "Feature",
      "id": "607",
      "geometry": {
        "type": "Point",
        "coordinates": [
          -25.241147,
          -15.286381
        ]
      },
      "properties": {
        "label": "ABALAPPPA",
        "level": 3,
        "pos": "-65915.697,-45290.651",
        "weight": "481.6051520091557"
      }
    },
    {
      "type": "Feature",
      "id": "603",
      "geometry": {
        "type": "Point",
        "coordinates": [
          -26.63316,
          -14.484937
        ]
      },
      "properties": {
        "label": "ABALAPPPP",
        "level": 3,
        "pos": "-69801.694,-42985.485",
        "weight": "483.51811782172916"
      }
    },
    {
      "type": "Feature",
      "id": "659",
      "geometry": {
        "type": "Point",
        "coordinates": [
          -23.672593,
          -33.345406
        ]
      },
      "properties": {
        "label": "ABALAAAALA",
        "level": 2,
        "pos": "-61536.867999999995,-100700.83099999999",
        "weight": "778.8502241396246"
      }
    },
    {
      "type": "Feature",
      "id": "658",
      "geometry": {
        "type": "Point",
        "coordinates": [
          -25.040297,
          -34.074737
        ]
      },
      "properties": {
        "label": "ABALAAAALP",
        "level": 2,
        "pos": "-65355.00000000001,-103137.97700000001",
        "weight": "752.3365680002165"
      }
    },
    {
      "type": "Feature",
      "id": "656",
      "geometry": {
        "type": "Point",
        "coordinates": [
          -22.611541,
          -30.973168
        ]
      },
      "properties": {
        "label": "ABALAAAARL",
        "level": 2,
        "pos": "-58574.798,-92910.594",
        "weight": "749.8825921968865"
      }
    },
    {
      "type": "Feature",
      "id": "655",
      "geometry": {
        "type": "Point",
        "coordinates": [
          -19.763966,
          -28.32155
        ]
      },
      "properties": {
        "label": "ABALAAAARR",
        "level": 2,
        "pos": "-50625.413,-84428.31",
        "weight": "749.8825921968865"
      }
    },
    {
      "type": "Feature",
      "id": "652",
      "geometry": {
        "type": "Point",
        "coordinates": [
          -25.355965,
          -32.586123
        ]
      },
      "properties": {
        "label": "ABALAAAPAL",
        "level": 2,
        "pos": "-66236.231,-98185.181",
        "weight": "733.0584604071466"
      }
    },
    {
      "type": "Feature",
      "id": "651",
      "geometry": {
        "type": "Point",
        "coordinates": [
          -19.963892,
          -27.200911
        ]
      },
      "properties": {
        "label": "ABALAAAPAR",
        "level": 2,
        "pos": "-51183.526999999995,-80907.974",
        "weight": "768.5635604918847"
      }
    },
    {
      "type": "Feature",
      "id": "649",
      "geometry": {
        "type": "Point",
        "coordinates": [
          -17.997062,
          -25.101933
        ]
      },
      "properties": {
        "label": "ABALAAAPPL",
        "level": 2,
        "pos": "-45692.86,-74407.484",
        "weight": "768.5635604918847"
      }
    },
    {
      "type": "Feature",
      "id": "648",
      "geometry": {
        "type": "Point",
        "coordinates": [
          -15.336635,
          -21.45663
        ]
      },
      "properties": {
        "label": "ABALAAAPPR",
        "level": 2,
        "pos": "-38265.917,-63373.979",
        "weight": "733.0584604071466"
      }
    },
    {
      "type": "Feature",
      "id": "644",
      "geometry": {
        "type": "Point",
        "coordinates": [
          -21.774938,
          -26.44322
        ]
      },
      "properties": {
        "label": "ABALAAPAAA",
        "level": 1,
        "pos": "-56239.314,-78547.85800000001",
        "weight": "785.9021207013657"
      }
    },
    {
      "type": "Feature",
      "id": "643",
      "geometry": {
        "type": "Point",
        "coordinates": [
          -19.131491,
          -23.949492
        ]
      },
      "properties": {
        "label": "ABALAAPAAP",
        "level": 2,
        "pos": "-48859.774000000005,-70886.244",
        "weight": "762.799279594506"
      }
    },
    {
      "type": "Feature",
      "id": "1315",
      "geometry": {
        "type": "Point",
        "coordinates": [
          -8.864707,
          -7.933984
        ]
      },
      "properties": {
        "label": "ABALAAPAPA",
        "level": 4,
        "pos": "-20198.664999999997,-24410.624",
        "weight": "287.21720664946696"
      }
    },
    {
      "type": "Feature",
      "id": "641",
      "geometry": {
        "type": "Point",
        "coordinates": [
          -13.373531,
          -17.676851
        ]
      },
      "properties": {
        "label": "ABALAAPAPP",
        "level": 2,
        "pos": "-32785.648,-52220.801",
        "weight": "743.6963275037664"
      }
    },
    {
      "type": "Feature",
      "id": "1312",
      "geometry": {
        "type": "Point",
        "coordinates": [
          -13.427335,
          -14.728559
        ]
      },
      "properties": {
        "label": "ABALAAPPAA",
        "level": 4,
        "pos": "-32935.847,-43685.299",
        "weight": "301.5668219973928"
      }
    },
    {
      "type": "Feature",
      "id": "638",
      "geometry": {
        "type": "Point",
        "coordinates": [
          -26.683925,
          -28.826705
        ]
      },
      "properties": {
        "label": "ABALAAPPAP",
        "level": 2,
        "pos": "-69943.409,-86027.256",
        "weight": "751.6091025732568"
      }
    },
    {
      "type": "Feature",
      "id": "636",
      "geometry": {
        "type": "Point",
        "coordinates": [
          -28.301569,
          -30.332804
        ]
      },
      "properties": {
        "label": "ABALAAPPPA",
        "level": 2,
        "pos": "-74459.277,-90841.425",
        "weight": "764.682790625522"
      }
    },
    {
      "type": "Feature",
      "id": "635",
      "geometry": {
        "type": "Point",
        "coordinates": [
          -29.37273,
          -29.437355
        ]
      },
      "properties": {
        "label": "ABALAAPPPP",
        "level": 3,
        "pos": "-77449.574,-87970.527",
        "weight": "594.2914261259485"
      }
    },
    {
      "type": "Feature",
      "id": "1335",
      "geometry": {
        "type": "Point",
        "coordinates": [
          -30.39637,
          -40.202553
        ]
      },
      "properties": {
        "label": "ABALAAAALAL",
        "level": 4,
        "pos": "-80307.197,-124527.28899999999",
        "weight": "289.9929534770247"
      }
    },
    {
      "type": "Feature",
      "id": "1334",
      "geometry": {
        "type": "Point",
        "coordinates": [
          -33.273305,
          -40.238211
        ]
      },
      "properties": {
        "label": "ABALAAAALAR",
        "level": 4,
        "pos": "-88338.555,-124657.1",
        "weight": "289.9929534770247"
      }
    },
    {
      "type": "Feature",
      "id": "1333",
      "geometry": {
        "type": "Point",
        "coordinates": [
          -31.676147,
          -39.12757
        ]
      },
      "properties": {
        "label": "ABALAAAALPA",
        "level": 4,
        "pos": "-83879.874,-120645.38",
        "weight": "274.46273768436544"
      }
    },
    {
      "type": "Feature",
      "id": "1332",
      "geometry": {
        "type": "Point",
        "coordinates": [
          -32.5091,
          -39.547359
        ]
      },
      "properties": {
        "label": "ABALAAAALPP",
        "level": 4,
        "pos": "-86205.169,-122154.124",
        "weight": "274.46273768436544"
      }
    },
    {
      "type": "Feature",
      "id": "1331",
      "geometry": {
        "type": "Point",
        "coordinates": [
          -28.710473,
          -36.682699
        ]
      },
      "properties": {
        "label": "ABALAAAARLA",
        "level": 4,
        "pos": "-75600.785,-112030.754",
        "weight": "265.80440241721254"
      }
    },
    {
      "type": "Feature",
      "id": "1330",
      "geometry": {
        "type": "Point",
        "coordinates": [
          -29.688717,
          -37.514306
        ]
      },
      "properties": {
        "label": "ABALAAAARLP",
        "level": 4,
        "pos": "-78331.686,-114929.041",
        "weight": "265.80440241721254"
      }
    },
    {
      "type": "Feature",
      "id": "1329",
      "geometry": {
        "type": "Point",
        "coordinates": [
          -21.515649,
          -30.243425
        ]
      },
      "properties": {
        "label": "ABALAAAARRA",
        "level": 4,
        "pos": "-55515.471,-90553.697",
        "weight": "265.80440241721254"
      }
    },
    {
      "type": "Feature",
      "id": "1328",
      "geometry": {
        "type": "Point",
        "coordinates": [
          -22.458867,
          -31.825642
        ]
      },
      "properties": {
        "label": "ABALAAAARRP",
        "level": 4,
        "pos": "-58148.592000000004,-95686.82800000001",
        "weight": "265.80440241721254"
      }
    },
    {
      "type": "Feature",
      "id": "1327",
      "geometry": {
        "type": "Point",
        "coordinates": [
          -33.771246,
          -38.508059
        ]
      },
      "properties": {
        "label": "ABALAAAPALL",
        "level": 4,
        "pos": "-89728.622,-118435.153",
        "weight": "283.34358731346225"
      }
    },
    {
      "type": "Feature",
      "id": "1326",
      "geometry": {
        "type": "Point",
        "coordinates": [
          -30.725428,
          -38.239958
        ]
      },
      "properties": {
        "label": "ABALAAAPALR",
        "level": 4,
        "pos": "-81225.812,-117484.547",
        "weight": "283.34358731346225"
      }
    },
    {
      "type": "Feature",
      "id": "1325",
      "geometry": {
        "type": "Point",
        "coordinates": [
          -26.504969,
          -33.356524
        ]
      },
      "properties": {
        "label": "ABALAAAPARL",
        "level": 4,
        "pos": "-69443.829,-100737.826",
        "weight": "304.1370987351413"
      }
    },
    {
      "type": "Feature",
      "id": "1324",
      "geometry": {
        "type": "Point",
        "coordinates": [
          -27.71146,
          -34.258701
        ]
      },
      "properties": {
        "label": "ABALAAAPARR",
        "level": 4,
        "pos": "-72811.90599999999,-103756.023",
        "weight": "304.1370987351413"
      }
    },
    {
      "type": "Feature",
      "id": "1323",
      "geometry": {
        "type": "Point",
        "coordinates": [
          -25.299382,
          -31.882099
        ]
      },
      "properties": {
        "label": "ABALAAAPPLL",
        "level": 4,
        "pos": "-66078.27399999999,-95871.591",
        "weight": "304.1370987351413"
      }
    },
    {
      "type": "Feature",
      "id": "1322",
      "geometry": {
        "type": "Point",
        "coordinates": [
          -25.210133,
          -30.423738
        ]
      },
      "properties": {
        "label": "ABALAAAPPLR",
        "level": 4,
        "pos": "-65829.119,-91134.42000000001",
        "weight": "304.1370987351413"
      }
    },
    {
      "type": "Feature",
      "id": "1321",
      "geometry": {
        "type": "Point",
        "coordinates": [
          -19.235849,
          -26.028004
        ]
      },
      "properties": {
        "label": "ABALAAAPPRL",
        "level": 4,
        "pos": "-49151.095,-77261.11899999999",
        "weight": "283.34358731346225"
      }
    },
    {
      "type": "Feature",
      "id": "1320",
      "geometry": {
        "type": "Point",
        "coordinates": [
          -17.547132,
          -22.988269
        ]
      },
      "properties": {
        "label": "ABALAAAPPRR",
        "level": 4,
        "pos": "-44436.818,-67973.297",
        "weight": "283.34358731346225"
      }
    },
    {
      "type": "Feature",
      "id": "1319",
      "geometry": {
        "type": "Point",
        "coordinates": [
          -29.045703,
          -32.760482
        ]
      },
      "properties": {
        "label": "ABALAAPAAAL",
        "level": 4,
        "pos": "-76536.631,-98760.959",
        "weight": "311.0864151642641"
      }
    },
    {
      "type": "Feature",
      "id": "1318",
      "geometry": {
        "type": "Point",
        "coordinates": [
          -28.120836,
          -32.017521
        ]
      },
      "properties": {
        "label": "ABALAAPAAAR",
        "level": 4,
        "pos": "-73954.745,-96315.227",
        "weight": "311.0864151642641"
      }
    },
    {
      "type": "Feature",
      "id": "1317",
      "geometry": {
        "type": "Point",
        "coordinates": [
          -27.938277,
          -31.145101
        ]
      },
      "properties": {
        "label": "ABALAAPAAPA",
        "level": 4,
        "pos": "-73445.096,-93468.50200000001",
        "weight": "297.5469708469274"
      }
    },
    {
      "type": "Feature",
      "id": "1316",
      "geometry": {
        "type": "Point",
        "coordinates": [
          -25.390726,
          -29.521028
        ]
      },
      "properties": {
        "label": "ABALAAPAAPP",
        "level": 4,
        "pos": "-66333.267,-88237.709",
        "weight": "297.5469708469274"
      }
    },
    {
      "type": "Feature",
      "id": "1314",
      "geometry": {
        "type": "Point",
        "coordinates": [
          -21.930474,
          -25.491125
        ]
      },
      "properties": {
        "label": "ABALAAPAPPA",
        "level": 4,
        "pos": "-56673.507,-75604.073",
        "weight": "268.2116703896872"
      }
    },
    {
      "type": "Feature",
      "id": "1313",
      "geometry": {
        "type": "Point",
        "coordinates": [
          -20.90649,
          -24.73317
        ]
      },
      "properties": {
        "label": "ABALAAPAPPP",
        "level": 4,
        "pos": "-53814.919,-73277.212",
        "weight": "268.2116703896872"
      }
    },
    {
      "type": "Feature",
      "id": "1311",
      "geometry": {
        "type": "Point",
        "coordinates": [
          -32.289655,
          -35.959592
        ]
      },
      "properties": {
        "label": "ABALAAPPAPA",
        "level": 4,
        "pos": "-85592.563,-109535.977",
        "weight": "264.52285159925214"
      }
    },
    {
      "type": "Feature",
      "id": "1310",
      "geometry": {
        "type": "Point",
        "coordinates": [
          -31.581357,
          -36.795686
        ]
      },
      "properties": {
        "label": "ABALAAPPAPP",
        "level": 4,
        "pos": "-83615.253,-112422.668",
        "weight": "264.52285159925214"
      }
    },
    {
      "type": "Feature",
      "id": "1309",
      "geometry": {
        "type": "Point",
        "coordinates": [
          -37.168166,
          -37.364428
        ]
      },
      "properties": {
        "label": "ABALAAPPPAA",
        "level": 3,
        "pos": "-99211.579,-114404.32699999999",
        "weight": "323.9783181451709"
      }
    },
    {
      "type": "Feature",
      "id": "1308",
      "geometry": {
        "type": "Point",
        "coordinates": [
          -34.358282,
          -36.881108
        ]
      },
      "properties": {
        "label": "ABALAAPPPAP",
        "level": 3,
        "pos": "-91367.408,-112719.357",
        "weight": "323.9783181451709"
      }
    },
    {
      "type": "Feature",
      "id": "634",
      "geometry": {
        "type": "Point",
        "coordinates": [
          -36.721646,
          -36.092096
        ]
      },
      "properties": {
        "label": "ABALAAPPPPA",
        "level": 1,
        "pos": "-97965.064,-109991.39700000001",
        "weight": "850.0436129060644"
      }
    },
    {
      "type": "Feature",
      "id": "1305",
      "geometry": {
        "type": "Point",
        "coordinates": [
          -35.117471,
          -35.339988
        ]
      },
      "properties": {
        "label": "ABALAAPPPPP",
        "level": 4,
        "pos": "-93486.786,-107416.425",
        "weight": "255.8548800945337"
      }
    },
    {
      "type": "Feature",
      "id": "1307",
      "geometry": {
        "type": "Point",
        "coordinates": [
          -40.110058,
          -43.51428
        ]
      },
      "properties": {
        "label": "ABALAAPPPPAA",
        "level": 3,
        "pos": "-107424.275,-136891.758",
        "weight": "349.6618033595319"
      }
    },
    {
      "type": "Feature",
      "id": "1306",
      "geometry": {
        "type": "Point",
        "coordinates": [
          -41.668966,
          -42.803686
        ]
      },
      "properties": {
        "label": "ABALAAPPPPAP",
        "level": 3,
        "pos": "-111776.169,-134183.88400000002",
        "weight": "349.6618033595319"
      }
    },
    {
      "type": "Feature",
      "id": "629",
      "geometry": {
        "type": "Point",
        "coordinates": [
          -18.222203,
          -19.579766
        ]
      },
      "properties": {
        "label": "ABALAPAAAA",
        "level": 1,
        "pos": "-46321.373999999996,-57803.123999999996",
        "weight": "811.1608201079392"
      }
    },
    {
      "type": "Feature",
      "id": "628",
      "geometry": {
        "type": "Point",
        "coordinates": [
          -26.036606,
          -23.901926
        ]
      },
      "properties": {
        "label": "ABALAPAAAP",
        "level": 2,
        "pos": "-68136.32800000001,-70741.591",
        "weight": "714.3279152690274"
      }
    },
    {
      "type": "Feature",
      "id": "626",
      "geometry": {
        "type": "Point",
        "coordinates": [
          -29.322104,
          -28.298581
        ]
      },
      "properties": {
        "label": "ABALAPAAPA",
        "level": 2,
        "pos": "-77308.241,-84355.79",
        "weight": "771.0874401870495"
      }
    },
    {
      "type": "Feature",
      "id": "625",
      "geometry": {
        "type": "Point",
        "coordinates": [
          -30.718361,
          -27.52037
        ]
      },
      "properties": {
        "label": "ABALAPAAPP",
        "level": 3,
        "pos": "-81206.08099999999,-81907.832",
        "weight": "585.4777523035407"
      }
    },
    {
      "type": "Feature",
      "id": "1295",
      "geometry": {
        "type": "Point",
        "coordinates": [
          -28.952876,
          -24.114573
        ]
      },
      "properties": {
        "label": "ABALAPAPAA",
        "level": 4,
        "pos": "-76277.494,-71388.672",
        "weight": "246.3880127848361"
      }
    },
    {
      "type": "Feature",
      "id": "621",
      "geometry": {
        "type": "Point",
        "coordinates": [
          -33.272416,
          -28.124963
        ]
      },
      "properties": {
        "label": "ABALAPAPAP",
        "level": 3,
        "pos": "-88336.07100000001,-83808.116",
        "weight": "644.8018360461965"
      }
    },
    {
      "type": "Feature",
      "id": "618",
      "geometry": {
        "type": "Point",
        "coordinates": [
          -34.110423,
          -27.211136
        ]
      },
      "properties": {
        "label": "ABALAPAPPA",
        "level": 3,
        "pos": "-90675.47899999999,-80939.93299999999",
        "weight": "616.6804080632246"
      }
    },
    {
      "type": "Feature",
      "id": "616",
      "geometry": {
        "type": "Point",
        "coordinates": [
          -31.598637,
          -24.024503
        ]
      },
      "properties": {
        "label": "ABALAPAPPP",
        "level": 2,
        "pos": "-83663.491,-71114.465",
        "weight": "753.2916468489262"
      }
    },
    {
      "type": "Feature",
      "id": "1286",
      "geometry": {
        "type": "Point",
        "coordinates": [
          -21.826352,
          -14.583878
        ]
      },
      "properties": {
        "label": "ABALAPPAAA",
        "level": 4,
        "pos": "-56382.835999999996,-43269.599",
        "weight": "269.7648461722311"
      }
    },
    {
      "type": "Feature",
      "id": "612",
      "geometry": {
        "type": "Point",
        "coordinates": [
          -31.112728,
          -22.542654
        ]
      },
      "properties": {
        "label": "ABALAPPAAP",
        "level": 1,
        "pos": "-82307.014,-66629.95999999999",
        "weight": "836.0849236102863"
      }
    },
    {
      "type": "Feature",
      "id": "610",
      "geometry": {
        "type": "Point",
        "coordinates": [
          -29.757655,
          -19.213939
        ]
      },
      "properties": {
        "label": "ABALAPPAPA",
        "level": 1,
        "pos": "-78524.136,-56725.034",
        "weight": "800.5707777590012"
      }
    },
    {
      "type": "Feature",
      "id": "609",
      "geometry": {
        "type": "Point",
        "coordinates": [
          -31.841484,
          -20.924237
        ]
      },
      "properties": {
        "label": "ABALAPPAPP",
        "level": 2,
        "pos": "-84341.427,-61786.755",
        "weight": "720.4946492121798"
      }
    },
    {
      "type": "Feature",
      "id": "606",
      "geometry": {
        "type": "Point",
        "coordinates": [
          -32.845548,
          -20.005522
        ]
      },
      "properties": {
        "label": "ABALAPPPAA",
        "level": 2,
        "pos": "-87144.41100000001,-59060.911",
        "weight": "766.8528572979657"
      }
    },
    {
      "type": "Feature",
      "id": "605",
      "geometry": {
        "type": "Point",
        "coordinates": [
          -32.870036,
          -21.738402
        ]
      },
      "properties": {
        "label": "ABALAPPPAP",
        "level": 3,
        "pos": "-87212.768,-64216.374",
        "weight": "609.9585564025069"
      }
    },
    {
      "type": "Feature",
      "id": "602",
      "geometry": {
        "type": "Point",
        "coordinates": [
          -36.36929,
          -20.792575
        ]
      },
      "properties": {
        "label": "ABALAPPPPA",
        "level": 3,
        "pos": "-96981.415,-61395.1",
        "weight": "613.3234967310173"
      }
    },
    {
      "type": "Feature",
      "id": "600",
      "geometry": {
        "type": "Point",
        "coordinates": [
          -35.381009,
          -19.942204
        ]
      },
      "properties": {
        "label": "ABALAPPPPP",
        "level": 2,
        "pos": "-94222.495,-58873.638",
        "weight": "748.8708374282093"
      }
    },
    {
      "type": "Feature",
      "id": "1304",
      "geometry": {
        "type": "Point",
        "coordinates": [
          -25.89955,
          -25.068103
        ]
      },
      "properties": {
        "label": "ABALAPAAAAA",
        "level": 3,
        "pos": "-67753.724,-74303.65299999999",
        "weight": "359.8722676775033"
      }
    },
    {
      "type": "Feature",
      "id": "1303",
      "geometry": {
        "type": "Point",
        "coordinates": [
          -27.11578,
          -25.938815
        ]
      },
      "properties": {
        "label": "ABALAPAAAAP",
        "level": 3,
        "pos": "-71148.98599999999,-76985.32400000001",
        "weight": "359.8722676775033"
      }
    },
    {
      "type": "Feature",
      "id": "1302",
      "geometry": {
        "type": "Point",
        "coordinates": [
          -21.025696,
          -19.195614
        ]
      },
      "properties": {
        "label": "ABALAPAAAPA",
        "level": 4,
        "pos": "-54147.698,-56671.087",
        "weight": "303.17340495976265"
      }
    },
    {
      "type": "Feature",
      "id": "1301",
      "geometry": {
        "type": "Point",
        "coordinates": [
          -21.552391,
          -19.991232
        ]
      },
      "properties": {
        "label": "ABALAPAAAPP",
        "level": 4,
        "pos": "-55618.038,-59018.641",
        "weight": "303.17340495976265"
      }
    },
    {
      "type": "Feature",
      "id": "1300",
      "geometry": {
        "type": "Point",
        "coordinates": [
          -32.052651,
          -30.109959
        ]
      },
      "properties": {
        "label": "ABALAPAAPAA",
        "level": 3,
        "pos": "-84930.93000000001,-90124.541",
        "weight": "338.137396911057"
      }
    },
    {
      "type": "Feature",
      "id": "1299",
      "geometry": {
        "type": "Point",
        "coordinates": [
          -33.407061,
          -31.760556
        ]
      },
      "properties": {
        "label": "ABALAPAAPAP",
        "level": 3,
        "pos": "-88711.95,-95473.97499999999",
        "weight": "338.137396911057"
      }
    },
    {
      "type": "Feature",
      "id": "624",
      "geometry": {
        "type": "Point",
        "coordinates": [
          -38.991441,
          -35.379123
        ]
      },
      "properties": {
        "label": "ABALAPAAPPA",
        "level": 1,
        "pos": "-104301.496,-107549.811",
        "weight": "837.7855973724519"
      }
    },
    {
      "type": "Feature",
      "id": "1296",
      "geometry": {
        "type": "Point",
        "coordinates": [
          -36.652851,
          -34.63758
        ]
      },
      "properties": {
        "label": "ABALAPAAPPP",
        "level": 4,
        "pos": "-97773.00700000001,-105033.158",
        "weight": "258.3041257488993"
      }
    },
    {
      "type": "Feature",
      "id": "620",
      "geometry": {
        "type": "Point",
        "coordinates": [
          -40.73115,
          -34.649398
        ]
      },
      "properties": {
        "label": "ABALAPAPAPA",
        "level": 1,
        "pos": "-109158.127,-105073.08600000001",
        "weight": "864.1555386071927"
      }
    },
    {
      "type": "Feature",
      "id": "1292",
      "geometry": {
        "type": "Point",
        "coordinates": [
          -39.66648,
          -33.871744
        ]
      },
      "properties": {
        "label": "ABALAPAPAPP",
        "level": 4,
        "pos": "-106185.96399999999,-102457.568",
        "weight": "266.93646596037325"
      }
    },
    {
      "type": "Feature",
      "id": "617",
      "geometry": {
        "type": "Point",
        "coordinates": [
          -42.769321,
          -33.957739
        ]
      },
      "properties": {
        "label": "ABALAPAPPAA",
        "level": 1,
        "pos": "-114847.958,-102745.619",
        "weight": "844.628926050865"
      }
    },
    {
      "type": "Feature",
      "id": "1289",
      "geometry": {
        "type": "Point",
        "coordinates": [
          -42.037005,
          -33.049201
        ]
      },
      "properties": {
        "label": "ABALAPAPPAP",
        "level": 4,
        "pos": "-112803.6,-99716.875",
        "weight": "262.94249869256623"
      }
    },
    {
      "type": "Feature",
      "id": "1288",
      "geometry": {
        "type": "Point",
        "coordinates": [
          -39.234346,
          -30.278075
        ]
      },
      "properties": {
        "label": "ABALAPAPPPA",
        "level": 4,
        "pos": "-104979.602,-90665.215",
        "weight": "313.7004044081289"
      }
    },
    {
      "type": "Feature",
      "id": "1287",
      "geometry": {
        "type": "Point",
        "coordinates": [
          -37.477379,
          -28.648413
        ]
      },
      "properties": {
        "label": "ABALAPAPPPP",
        "level": 4,
        "pos": "-100074.78600000001,-85462.036",
        "weight": "313.7004044081289"
      }
    },
    {
      "type": "Feature",
      "id": "1298",
      "geometry": {
        "type": "Point",
        "coordinates": [
          -44.026194,
          -41.857982
        ]
      },
      "properties": {
        "label": "ABALAPAAPPAA",
        "level": 3,
        "pos": "-118356.692,-130627.84",
        "weight": "341.02871701922214"
      }
    },
    {
      "type": "Feature",
      "id": "1297",
      "geometry": {
        "type": "Point",
        "coordinates": [
          -44.677701,
          -41.203817
        ]
      },
      "properties": {
        "label": "ABALAPAAPPAP",
        "level": 3,
        "pos": "-120175.461,-128198.743",
        "weight": "341.02871701922214"
      }
    },
    {
      "type": "Feature",
      "id": "1294",
      "geometry": {
        "type": "Point",
        "coordinates": [
          -47.970445,
          -41.07794
        ]
      },
      "properties": {
        "label": "ABALAPAPAPAA",
        "level": 3,
        "pos": "-129367.605,-127734.124",
        "weight": "351.10919494701784"
      }
    },
    {
      "type": "Feature",
      "id": "1293",
      "geometry": {
        "type": "Point",
        "coordinates": [
          -47.249148,
          -40.304707
        ]
      },
      "properties": {
        "label": "ABALAPAPAPAP",
        "level": 3,
        "pos": "-127354.001,-124899.362",
        "weight": "351.10919494701784"
      }
    },
    {
      "type": "Feature",
      "id": "1291",
      "geometry": {
        "type": "Point",
        "coordinates": [
          -50.382136,
          -40.169958
        ]
      },
      "properties": {
        "label": "ABALAPAPPAAA",
        "level": 3,
        "pos": "-136100.162,-124408.69499999999",
        "weight": "342.19400748547025"
      }
    },
    {
      "type": "Feature",
      "id": "1290",
      "geometry": {
        "type": "Point",
        "coordinates": [
          -50.402726,
          -39.265061
        ]
      },
      "properties": {
        "label": "ABALAPAPPAAP",
        "level": 3,
        "pos": "-136157.645,-121138.53",
        "weight": "342.19400748547025"
      }
    },
    {
      "type": "Feature",
      "id": "1285",
      "geometry": {
        "type": "Point",
        "coordinates": [
          -38.976687,
          -29.512682
        ]
      },
      "properties": {
        "label": "ABALAPPAAPA",
        "level": 3,
        "pos": "-104260.31,-88211.049",
        "weight": "332.67752179107924"
      }
    },
    {
      "type": "Feature",
      "id": "1284",
      "geometry": {
        "type": "Point",
        "coordinates": [
          -40.252061,
          -28.773172
        ]
      },
      "properties": {
        "label": "ABALAPPAAPP",
        "level": 3,
        "pos": "-107820.694,-85857.45199999999",
        "weight": "332.67752179107924"
      }
    },
    {
      "type": "Feature",
      "id": "1283",
      "geometry": {
        "type": "Point",
        "coordinates": [
          -29.268966,
          -21.032526
        ]
      },
      "properties": {
        "label": "ABALAPPAPAA",
        "level": 3,
        "pos": "-77159.902,-62109.131",
        "weight": "352.0508117935716"
      }
    },
    {
      "type": "Feature",
      "id": "1282",
      "geometry": {
        "type": "Point",
        "coordinates": [
          -29.302244,
          -20.019733
        ]
      },
      "properties": {
        "label": "ABALAPPAPAP",
        "level": 3,
        "pos": "-77252.803,-59102.953",
        "weight": "352.0508117935716"
      }
    },
    {
      "type": "Feature",
      "id": "1281",
      "geometry": {
        "type": "Point",
        "coordinates": [
          -37.369915,
          -25.716012
        ]
      },
      "properties": {
        "label": "ABALAPPAPPA",
        "level": 4,
        "pos": "-99774.793,-76297.258",
        "weight": "305.1600155586509"
      }
    },
    {
      "type": "Feature",
      "id": "1280",
      "geometry": {
        "type": "Point",
        "coordinates": [
          -39.383208,
          -27.917611
        ]
      },
      "properties": {
        "label": "ABALAPPAPPP",
        "level": 4,
        "pos": "-105395.168,-83155.198",
        "weight": "305.1600155586509"
      }
    },
    {
      "type": "Feature",
      "id": "1279",
      "geometry": {
        "type": "Point",
        "coordinates": [
          -34.780278,
          -21.506626
        ]
      },
      "properties": {
        "label": "ABALAPPPAAA",
        "level": 3,
        "pos": "-92545.471,-63523.327000000005",
        "weight": "321.85032689881774"
      }
    },
    {
      "type": "Feature",
      "id": "1278",
      "geometry": {
        "type": "Point",
        "coordinates": [
          -37.509385,
          -22.206216
        ]
      },
      "properties": {
        "label": "ABALAPPPAAP",
        "level": 3,
        "pos": "-100164.14199999999,-65618.61600000001",
        "weight": "321.85032689881774"
      }
    },
    {
      "type": "Feature",
      "id": "604",
      "geometry": {
        "type": "Point",
        "coordinates": [
          -43.043766,
          -28.767871
        ]
      },
      "properties": {
        "label": "ABALAPPPAPA",
        "level": 1,
        "pos": "-115614.109,-85840.642",
        "weight": "841.3926226941014"
      }
    },
    {
      "type": "Feature",
      "id": "1275",
      "geometry": {
        "type": "Point",
        "coordinates": [
          -40.707576,
          -27.173595
        ]
      },
      "properties": {
        "label": "ABALAPPPAPP",
        "level": 4,
        "pos": "-109092.32400000001,-80822.606",
        "weight": "259.3062849720493"
      }
    },
    {
      "type": "Feature",
      "id": "601",
      "geometry": {
        "type": "Point",
        "coordinates": [
          -42.891436,
          -28.012917
        ]
      },
      "properties": {
        "label": "ABALAPPPPAA",
        "level": 1,
        "pos": "-115188.859,-83455.155",
        "weight": "842.1160729174716"
      }
    },
    {
      "type": "Feature",
      "id": "1272",
      "geometry": {
        "type": "Point",
        "coordinates": [
          -44.454746,
          -27.210708
        ]
      },
      "properties": {
        "label": "ABALAPPPPAP",
        "level": 4,
        "pos": "-119553.053,-80938.593",
        "weight": "261.8292816811821"
      }
    },
    {
      "type": "Feature",
      "id": "1271",
      "geometry": {
        "type": "Point",
        "coordinates": [
          -43.793115,
          -26.368247
        ]
      },
      "properties": {
        "label": "ABALAPPPPPA",
        "level": 4,
        "pos": "-117706.016,-78315.183",
        "weight": "312.18541024465827"
      }
    },
    {
      "type": "Feature",
      "id": "1270",
      "geometry": {
        "type": "Point",
        "coordinates": [
          -42.300997,
          -25.515964
        ]
      },
      "properties": {
        "label": "ABALAPPPPPP",
        "level": 4,
        "pos": "-113540.57299999999,-75680.57299999999",
        "weight": "312.18541024465827"
      }
    },
    {
      "type": "Feature",
      "id": "1277",
      "geometry": {
        "type": "Point",
        "coordinates": [
          -49.130415,
          -34.968341
        ]
      },
      "properties": {
        "label": "ABALAPPPAPAA",
        "level": 3,
        "pos": "-132605.808,-106152.879",
        "weight": "342.53274013259283"
      }
    },
    {
      "type": "Feature",
      "id": "1276",
      "geometry": {
        "type": "Point",
        "coordinates": [
          -49.228622,
          -34.008502
        ]
      },
      "properties": {
        "label": "ABALAPPPAPAP",
        "level": 3,
        "pos": "-132879.97400000002,-102915.786",
        "weight": "342.53274013259283"
      }
    },
    {
      "type": "Feature",
      "id": "1274",
      "geometry": {
        "type": "Point",
        "coordinates": [
          -52.401011,
          -33.473467
        ]
      },
      "properties": {
        "label": "ABALAPPPPAAA",
        "level": 3,
        "pos": "-141736.11800000002,-101127.273",
        "weight": "341.4694578433817"
      }
    },
    {
      "type": "Feature",
      "id": "1273",
      "geometry": {
        "type": "Point",
        "coordinates": [
          -51.920332,
          -32.779733
        ]
      },
      "properties": {
        "label": "ABALAPPPPAAP",
        "level": 3,
        "pos": "-140394.24399999998,-98824.60399999999",
        "weight": "341.4694578433817"
      }
    },
    {
      "type": "Feature",
      "id": "595",
      "geometry": {
        "type": "Point",
        "coordinates": [
          -27.019908,
          -12.75929
        ]
      },
      "properties": {
        "label": "ABALPAAAA",
        "level": 3,
        "pos": "-70881.34999999999,-38049.619",
        "weight": "547.9185589500927"
      }
    },
    {
      "type": "Feature",
      "id": "592",
      "geometry": {
        "type": "Point",
        "coordinates": [
          -26.467654,
          -11.819299
        ]
      },
      "properties": {
        "label": "ABALPAAAP",
        "level": 3,
        "pos": "-69339.656,-35375.405",
        "weight": "502.10592456399183"
      }
    },
    {
      "type": "Feature",
      "id": "588",
      "geometry": {
        "type": "Point",
        "coordinates": [
          -26.927414,
          -10.911601
        ]
      },
      "properties": {
        "label": "ABALPAAPA",
        "level": 3,
        "pos": "-70623.14,-32801.757000000005",
        "weight": "592.0989312935626"
      }
    },
    {
      "type": "Feature",
      "id": "585",
      "geometry": {
        "type": "Point",
        "coordinates": [
          -24.771261,
          -3.985832
        ]
      },
      "properties": {
        "label": "ABALPAAPP",
        "level": 3,
        "pos": "-64603.945999999996,-13373.995",
        "weight": "595.7632272687503"
      }
    },
    {
      "type": "Feature",
      "id": "580",
      "geometry": {
        "type": "Point",
        "coordinates": [
          -29.465564,
          -6.64657
        ]
      },
      "properties": {
        "label": "ABALPAPAA",
        "level": 3,
        "pos": "-77708.73400000001,-20802.73",
        "weight": "587.6520010061155"
      }
    },
    {
      "type": "Feature",
      "id": "577",
      "geometry": {
        "type": "Point",
        "coordinates": [
          -35.57962,
          -10.14834
        ]
      },
      "properties": {
        "label": "ABALPAPAP",
        "level": 3,
        "pos": "-94776.939,-30643.748",
        "weight": "528.3443738614616"
      }
    },
    {
      "type": "Feature",
      "id": "572",
      "geometry": {
        "type": "Point",
        "coordinates": [
          -36.347772,
          -8.565955
        ]
      },
      "properties": {
        "label": "ABALPAPPA",
        "level": 3,
        "pos": "-96921.34199999999,-26185.701999999997",
        "weight": "527.1946068764105"
      }
    },
    {
      "type": "Feature",
      "id": "568",
      "geometry": {
        "type": "Point",
        "coordinates": [
          -35.407756,
          -7.684092
        ]
      },
      "properties": {
        "label": "ABALPAPPP",
        "level": 3,
        "pos": "-94297.16399999999,-23709.487",
        "weight": "534.0878733151054"
      }
    },
    {
      "type": "Feature",
      "id": "562",
      "geometry": {
        "type": "Point",
        "coordinates": [
          -31.23432,
          -3.791793
        ]
      },
      "properties": {
        "label": "ABALPPAAA",
        "level": 2,
        "pos": "-82646.453,-12833.379",
        "weight": "701.528998650631"
      }
    },
    {
      "type": "Feature",
      "id": "560",
      "geometry": {
        "type": "Point",
        "coordinates": [
          -33.798717,
          -3.764709
        ]
      },
      "properties": {
        "label": "ABALPPAAP",
        "level": 3,
        "pos": "-89805.309,-12757.934000000001",
        "weight": "631.7878012967136"
      }
    },
    {
      "type": "Feature",
      "id": "557",
      "geometry": {
        "type": "Point",
        "coordinates": [
          -27.431179,
          2.017034
        ]
      },
      "properties": {
        "label": "ABALPPAPA",
        "level": 3,
        "pos": "-72029.466,3322.377",
        "weight": "534.0877458403811"
      }
    },
    {
      "type": "Feature",
      "id": "554",
      "geometry": {
        "type": "Point",
        "coordinates": [
          -35.506741,
          -1.703093
        ]
      },
      "properties": {
        "label": "ABALPPAPP",
        "level": 3,
        "pos": "-94573.495,-7020.375999999999",
        "weight": "487.6958212088321"
      }
    },
    {
      "type": "Feature",
      "id": "548",
      "geometry": {
        "type": "Point",
        "coordinates": [
          -36.687598,
          -0.752967
        ]
      },
      "properties": {
        "label": "ABALPPPAA",
        "level": 3,
        "pos": "-97870.01,-4378.66",
        "weight": "587.2291173711333"
      }
    },
    {
      "type": "Feature",
      "id": "545",
      "geometry": {
        "type": "Point",
        "coordinates": [
          -40.471628,
          1.281496
        ]
      },
      "properties": {
        "label": "ABALPPPAP",
        "level": 3,
        "pos": "-108433.644,1276.934",
        "weight": "534.1082942785033"
      }
    },
    {
      "type": "Feature",
      "id": "540",
      "geometry": {
        "type": "Point",
        "coordinates": [
          -40.122202,
          2.19504
        ]
      },
      "properties": {
        "label": "ABALPPPPA",
        "level": 3,
        "pos": "-107458.17099999999,3817.522",
        "weight": "541.7035421768057"
      }
    },
    {
      "type": "Feature",
      "id": "536",
      "geometry": {
        "type": "Point",
        "coordinates": [
          -40.466595,
          3.296232
        ]
      },
      "properties": {
        "label": "ABALPPPPP",
        "level": 3,
        "pos": "-108419.588,6882.085",
        "weight": "559.2016685562278"
      }
    },
    {
      "type": "Feature",
      "id": "594",
      "geometry": {
        "type": "Point",
        "coordinates": [
          -34.118311,
          -19.089324
        ]
      },
      "properties": {
        "label": "ABALPAAAAA",
        "level": 2,
        "pos": "-90697.503,-56358.34",
        "weight": "770.5065953309803"
      }
    },
    {
      "type": "Feature",
      "id": "593",
      "geometry": {
        "type": "Point",
        "coordinates": [
          -36.236217,
          -18.559938
        ]
      },
      "properties": {
        "label": "ABALPAAAAP",
        "level": 2,
        "pos": "-96609.921,-54803.627",
        "weight": "770.5065953309803"
      }
    },
    {
      "type": "Feature",
      "id": "591",
      "geometry": {
        "type": "Point",
        "coordinates": [
          -34.900996,
          -17.686999
        ]
      },
      "properties": {
        "label": "ABALPAAAPA",
        "level": 1,
        "pos": "-92882.47200000001,-52250.411",
        "weight": "793.0531396763304"
      }
    },
    {
      "type": "Feature",
      "id": "590",
      "geometry": {
        "type": "Point",
        "coordinates": [
          -37.568566,
          -16.901495
        ]
      },
      "properties": {
        "label": "ABALPAAAPP",
        "level": 2,
        "pos": "-100329.345,-49963.520000000004",
        "weight": "782.5021393545134"
      }
    },
    {
      "type": "Feature",
      "id": "587",
      "geometry": {
        "type": "Point",
        "coordinates": [
          -37.128429,
          -16.066172
        ]
      },
      "properties": {
        "label": "ABALPAAPAA",
        "level": 1,
        "pos": "-99100.646,-47542.009999999995",
        "weight": "806.1663849181849"
      }
    },
    {
      "type": "Feature",
      "id": "586",
      "geometry": {
        "type": "Point",
        "coordinates": [
          -37.333725,
          -15.262029
        ]
      },
      "properties": {
        "label": "ABALPAAPAP",
        "level": 2,
        "pos": "-99673.762,-45220.478",
        "weight": "732.2386763209495"
      }
    },
    {
      "type": "Feature",
      "id": "584",
      "geometry": {
        "type": "Point",
        "coordinates": [
          -21.290039,
          -6.943125
        ]
      },
      "properties": {
        "label": "ABALPAAPPA",
        "level": 1,
        "pos": "-54885.646,-21632.898999999998",
        "weight": "796.2477685512791"
      }
    },
    {
      "type": "Feature",
      "id": "583",
      "geometry": {
        "type": "Point",
        "coordinates": [
          -22.284163,
          -6.110883
        ]
      },
      "properties": {
        "label": "ABALPAAPPP",
        "level": 2,
        "pos": "-57660.88,-19304.388",
        "weight": "761.6618887990725"
      }
    },
    {
      "type": "Feature",
      "id": "579",
      "geometry": {
        "type": "Point",
        "coordinates": [
          -35.886924,
          -12.816892
        ]
      },
      "properties": {
        "label": "ABALPAPAAA",
        "level": 2,
        "pos": "-95634.82,-38213.806",
        "weight": "731.2119138795813"
      }
    },
    {
      "type": "Feature",
      "id": "578",
      "geometry": {
        "type": "Point",
        "coordinates": [
          -24.33754,
          -5.285155
        ]
      },
      "properties": {
        "label": "ABALPAPAAP",
        "level": 1,
        "pos": "-63393.163,-16997.682",
        "weight": "817.3583412838144"
      }
    },
    {
      "type": "Feature",
      "id": "576",
      "geometry": {
        "type": "Point",
        "coordinates": [
          -45.092551,
          -16.127904
        ]
      },
      "properties": {
        "label": "ABALPAPAPA",
        "level": 3,
        "pos": "-121333.56999999999,-47720.608",
        "weight": "613.2161775165137"
      }
    },
    {
      "type": "Feature",
      "id": "574",
      "geometry": {
        "type": "Point",
        "coordinates": [
          -45.346811,
          -15.147208
        ]
      },
      "properties": {
        "label": "ABALPAPAPP",
        "level": 2,
        "pos": "-122043.373,-44889.731",
        "weight": "776.5281920865599"
      }
    },
    {
      "type": "Feature",
      "id": "571",
      "geometry": {
        "type": "Point",
        "coordinates": [
          -45.464795,
          -13.267723
        ]
      },
      "properties": {
        "label": "ABALPAPPAA",
        "level": 2,
        "pos": "-122372.743,-39500.177",
        "weight": "711.4444501977845"
      }
    },
    {
      "type": "Feature",
      "id": "569",
      "geometry": {
        "type": "Point",
        "coordinates": [
          -46.614616,
          -12.382326
        ]
      },
      "properties": {
        "label": "ABALPAPPAP",
        "level": 2,
        "pos": "-125582.615,-36976.028",
        "weight": "703.5524019532929"
      }
    },
    {
      "type": "Feature",
      "id": "567",
      "geometry": {
        "type": "Point",
        "coordinates": [
          -44.417402,
          -11.434233
        ]
      },
      "properties": {
        "label": "ABALPAPPPA",
        "level": 1,
        "pos": "-119448.802,-34282.598999999995",
        "weight": "868.0034521338229"
      }
    },
    {
      "type": "Feature",
      "id": "566",
      "geometry": {
        "type": "Point",
        "coordinates": [
          -42.168931,
          -10.260477
        ]
      },
      "properties": {
        "label": "ABALPAPPPP",
        "level": 3,
        "pos": "-113171.886,-30960.470999999998",
        "weight": "667.6564256211494"
      }
    },
    {
      "type": "Feature",
      "id": "1269",
      "geometry": {
        "type": "Point",
        "coordinates": [
          -42.613516,
          -24.568534
        ]
      },
      "properties": {
        "label": "ABALPAAAAAA",
        "level": 4,
        "pos": "-114413.011,-72773.681",
        "weight": "307.8819331451497"
      }
    },
    {
      "type": "Feature",
      "id": "1268",
      "geometry": {
        "type": "Point",
        "coordinates": [
          -45.402628,
          -25.40225
        ]
      },
      "properties": {
        "label": "ABALPAAAAAP",
        "level": 4,
        "pos": "-122199.19,-75330.477",
        "weight": "307.8819331451497"
      }
    },
    {
      "type": "Feature",
      "id": "1267",
      "geometry": {
        "type": "Point",
        "coordinates": [
          -45.738198,
          -24.148064
        ]
      },
      "properties": {
        "label": "ABALPAAAAPA",
        "level": 4,
        "pos": "-123135.984,-71490.67700000001",
        "weight": "307.8819331451497"
      }
    },
    {
      "type": "Feature",
      "id": "1266",
      "geometry": {
        "type": "Point",
        "coordinates": [
          -42.961029,
          -23.787264
        ]
      },
      "properties": {
        "label": "ABALPAAAAPP",
        "level": 4,
        "pos": "-115383.145,-70393.122",
        "weight": "307.8819331451497"
      }
    },
    {
      "type": "Feature",
      "id": "1265",
      "geometry": {
        "type": "Point",
        "coordinates": [
          -46.6691,
          -23.374415
        ]
      },
      "properties": {
        "label": "ABALPAAAPAA",
        "level": 3,
        "pos": "-125734.724,-69140.951",
        "weight": "329.67746684502674"
      }
    },
    {
      "type": "Feature",
      "id": "1264",
      "geometry": {
        "type": "Point",
        "coordinates": [
          -43.746734,
          -22.985858
        ]
      },
      "properties": {
        "label": "ABALPAAAPAP",
        "level": 3,
        "pos": "-117576.537,-67966.019",
        "weight": "329.67746684502674"
      }
    },
    {
      "type": "Feature",
      "id": "1263",
      "geometry": {
        "type": "Point",
        "coordinates": [
          -45.885144,
          -22.127254
        ]
      },
      "properties": {
        "label": "ABALPAAAPPA",
        "level": 3,
        "pos": "-123546.196,-65381.613000000005",
        "weight": "323.5047034233665"
      }
    },
    {
      "type": "Feature",
      "id": "1262",
      "geometry": {
        "type": "Point",
        "coordinates": [
          -43.944593,
          -21.327377
        ]
      },
      "properties": {
        "label": "ABALPAAAPPP",
        "level": 3,
        "pos": "-118128.886,-62988.115",
        "weight": "323.5047034233665"
      }
    },
    {
      "type": "Feature",
      "id": "1261",
      "geometry": {
        "type": "Point",
        "coordinates": [
          -48.659898,
          -22.116603
        ]
      },
      "properties": {
        "label": "ABALPAAPAAA",
        "level": 4,
        "pos": "-131292.296,-65349.653000000006",
        "weight": "313.7606815691681"
      }
    },
    {
      "type": "Feature",
      "id": "1260",
      "geometry": {
        "type": "Point",
        "coordinates": [
          -47.359982,
          -21.293574
        ]
      },
      "properties": {
        "label": "ABALPAAPAAP",
        "level": 4,
        "pos": "-127663.413,-62887.246",
        "weight": "313.7606815691681"
      }
    },
    {
      "type": "Feature",
      "id": "1259",
      "geometry": {
        "type": "Point",
        "coordinates": [
          -45.84213,
          -20.464185
        ]
      },
      "properties": {
        "label": "ABALPAAPAPA",
        "level": 4,
        "pos": "-123426.117,-60419.732",
        "weight": "270.45697535716573"
      }
    },
    {
      "type": "Feature",
      "id": "1258",
      "geometry": {
        "type": "Point",
        "coordinates": [
          -47.445226,
          -19.612346
        ]
      },
      "properties": {
        "label": "ABALPAAPAPP",
        "level": 4,
        "pos": "-127901.378,-57899.253000000004",
        "weight": "270.45697535716573"
      }
    },
    {
      "type": "Feature",
      "id": "1257",
      "geometry": {
        "type": "Point",
        "coordinates": [
          -29.47423,
          -11.128954
        ]
      },
      "properties": {
        "label": "ABALPAAPPAA",
        "level": 4,
        "pos": "-77732.922,-33417.289",
        "weight": "305.42626186023176"
      }
    },
    {
      "type": "Feature",
      "id": "1256",
      "geometry": {
        "type": "Point",
        "coordinates": [
          -32.39281,
          -11.502772
        ]
      },
      "properties": {
        "label": "ABALPAAPPAP",
        "level": 4,
        "pos": "-85880.534,-34477.0",
        "weight": "305.42626186023176"
      }
    },
    {
      "type": "Feature",
      "id": "1255",
      "geometry": {
        "type": "Point",
        "coordinates": [
          -32.819502,
          -10.353118
        ]
      },
      "properties": {
        "label": "ABALPAAPPPA",
        "level": 4,
        "pos": "-87071.702,-31222.209",
        "weight": "285.17049290713373"
      }
    },
    {
      "type": "Feature",
      "id": "1254",
      "geometry": {
        "type": "Point",
        "coordinates": [
          -31.750734,
          -9.534973
        ]
      },
      "properties": {
        "label": "ABALPAAPPPP",
        "level": 4,
        "pos": "-84088.08600000001,-28913.294",
        "weight": "285.17049290713373"
      }
    },
    {
      "type": "Feature",
      "id": "1253",
      "geometry": {
        "type": "Point",
        "coordinates": [
          -45.28662,
          -16.968188
        ]
      },
      "properties": {
        "label": "ABALPAPAAAA",
        "level": 4,
        "pos": "-121875.338,-50157.308",
        "weight": "269.8768724020319"
      }
    },
    {
      "type": "Feature",
      "id": "1252",
      "geometry": {
        "type": "Point",
        "coordinates": [
          -45.198414,
          -17.858293
        ]
      },
      "properties": {
        "label": "ABALPAPAAAP",
        "level": 4,
        "pos": "-121629.095,-52750.419",
        "weight": "269.8768724020319"
      }
    },
    {
      "type": "Feature",
      "id": "1251",
      "geometry": {
        "type": "Point",
        "coordinates": [
          -29.961528,
          -7.602192
        ]
      },
      "properties": {
        "label": "ABALPAPAAPA",
        "level": 3,
        "pos": "-79093.277,-23479.789",
        "weight": "320.3636936742335"
      }
    },
    {
      "type": "Feature",
      "id": "1250",
      "geometry": {
        "type": "Point",
        "coordinates": [
          -31.133845,
          -8.470321
        ]
      },
      "properties": {
        "label": "ABALPAPAAPP",
        "level": 3,
        "pos": "-82365.962,-25916.903000000002",
        "weight": "320.3636936742335"
      }
    },
    {
      "type": "Feature",
      "id": "1249",
      "geometry": {
        "type": "Point",
        "coordinates": [
          -54.582568,
          -20.910308
        ]
      },
      "properties": {
        "label": "ABALPAPAPAA",
        "level": 4,
        "pos": "-147826.22799999997,-61745.3",
        "weight": "243.44630403295508"
      }
    },
    {
      "type": "Feature",
      "id": "575",
      "geometry": {
        "type": "Point",
        "coordinates": [
          -53.778494,
          -21.797393
        ]
      },
      "properties": {
        "label": "ABALPAPAPAP",
        "level": 1,
        "pos": "-145581.55099999998,-64392.938",
        "weight": "826.1057068056076"
      }
    },
    {
      "type": "Feature",
      "id": "1246",
      "geometry": {
        "type": "Point",
        "coordinates": [
          -53.982926,
          -19.24435
        ]
      },
      "properties": {
        "label": "ABALPAPAPPA",
        "level": 4,
        "pos": "-146152.254,-56814.560999999994",
        "weight": "309.6177242102313"
      }
    },
    {
      "type": "Feature",
      "id": "1245",
      "geometry": {
        "type": "Point",
        "coordinates": [
          -55.567833,
          -20.127889
        ]
      },
      "properties": {
        "label": "ABALPAPAPPP",
        "level": 4,
        "pos": "-150576.73,-59423.037000000004",
        "weight": "309.6177242102313"
      }
    },
    {
      "type": "Feature",
      "id": "1244",
      "geometry": {
        "type": "Point",
        "coordinates": [
          -54.254212,
          -16.878194
        ]
      },
      "properties": {
        "label": "ABALPAPPAAA",
        "level": 4,
        "pos": "-146909.582,-49895.835",
        "weight": "296.8067383991378"
      }
    },
    {
      "type": "Feature",
      "id": "570",
      "geometry": {
        "type": "Point",
        "coordinates": [
          -55.486153,
          -17.771637
        ]
      },
      "properties": {
        "label": "ABALPAPPAAP",
        "level": 1,
        "pos": "-150348.714,-52497.408",
        "weight": "838.1685174481265"
      }
    },
    {
      "type": "Feature",
      "id": "1241",
      "geometry": {
        "type": "Point",
        "coordinates": [
          -57.171473,
          -16.755346
        ]
      },
      "properties": {
        "label": "ABALPAPPAPA",
        "level": 4,
        "pos": "-155053.514,-49539.090000000004",
        "weight": "270.3566473087648"
      }
    },
    {
      "type": "Feature",
      "id": "1240",
      "geometry": {
        "type": "Point",
        "coordinates": [
          -54.78739,
          -15.936518
        ]
      },
      "properties": {
        "label": "ABALPAPPAPP",
        "level": 4,
        "pos": "-148398.024,-47167.077999999994",
        "weight": "270.3566473087648"
      }
    },
    {
      "type": "Feature",
      "id": "1239",
      "geometry": {
        "type": "Point",
        "coordinates": [
          -53.705272,
          -14.775264
        ]
      },
      "properties": {
        "label": "ABALPAPPPAA",
        "level": 3,
        "pos": "-145377.13999999998,-43819.546",
        "weight": "365.837861300447"
      }
    },
    {
      "type": "Feature",
      "id": "1238",
      "geometry": {
        "type": "Point",
        "coordinates": [
          -56.574988,
          -15.118384
        ]
      },
      "properties": {
        "label": "ABALPAPPPAP",
        "level": 3,
        "pos": "-153388.34399999998,-44806.733",
        "weight": "365.837861300447"
      }
    },
    {
      "type": "Feature",
      "id": "1237",
      "geometry": {
        "type": "Point",
        "coordinates": [
          -48.054708,
          -11.52866
        ]
      },
      "properties": {
        "label": "ABALPAPPPPA",
        "level": 4,
        "pos": "-129602.833,-34550.443999999996",
        "weight": "248.45308104644926"
      }
    },
    {
      "type": "Feature",
      "id": "1236",
      "geometry": {
        "type": "Point",
        "coordinates": [
          -51.287287,
          -13.517245
        ]
      },
      "properties": {
        "label": "ABALPAPPPPP",
        "level": 4,
        "pos": "-138627.006,-40213.172",
        "weight": "248.45308104644926"
      }
    },
    {
      "type": "Feature",
      "id": "1248",
      "geometry": {
        "type": "Point",
        "coordinates": [
          -62.86945,
          -26.379921
        ]
      },
      "properties": {
        "label": "ABALPAPAPAPA",
        "level": 3,
        "pos": "-170960.181,-78351.396",
        "weight": "342.9763192922278"
      }
    },
    {
      "type": "Feature",
      "id": "1247",
      "geometry": {
        "type": "Point",
        "coordinates": [
          -63.085736,
          -27.162793
        ]
      },
      "properties": {
        "label": "ABALPAPAPAPP",
        "level": 3,
        "pos": "-171563.97100000002,-80788.85800000001",
        "weight": "342.9763192922278"
      }
    },
    {
      "type": "Feature",
      "id": "1243",
      "geometry": {
        "type": "Point",
        "coordinates": [
          -64.342512,
          -22.858537
        ]
      },
      "properties": {
        "label": "ABALPAPPAAPA",
        "level": 3,
        "pos": "-175072.427,-67581.75799999999",
        "weight": "318.680701630285"
      }
    },
    {
      "type": "Feature",
      "id": "1242",
      "geometry": {
        "type": "Point",
        "coordinates": [
          -65.139951,
          -21.35092
        ]
      },
      "properties": {
        "label": "ABALPAPPAAPP",
        "level": 3,
        "pos": "-177298.594,-63058.371",
        "weight": "318.680701630285"
      }
    },
    {
      "type": "Feature",
      "id": "1235",
      "geometry": {
        "type": "Point",
        "coordinates": [
          -40.906499,
          -8.526783
        ]
      },
      "properties": {
        "label": "ABALPPAAAA",
        "level": 3,
        "pos": "-109647.638,-26075.593",
        "weight": "328.54071840140216"
      }
    },
    {
      "type": "Feature",
      "id": "561",
      "geometry": {
        "type": "Point",
        "coordinates": [
          -37.264987,
          -6.16444
        ]
      },
      "properties": {
        "label": "ABALPPAAAP",
        "level": 1,
        "pos": "-99481.867,-19454.121",
        "weight": "801.0154702751131"
      }
    },
    {
      "type": "Feature",
      "id": "1232",
      "geometry": {
        "type": "Point",
        "coordinates": [
          -42.40999,
          -7.651555
        ]
      },
      "properties": {
        "label": "ABALPPAAPA",
        "level": 4,
        "pos": "-113844.83799999999,-23618.228",
        "weight": "299.6929807662029"
      }
    },
    {
      "type": "Feature",
      "id": "559",
      "geometry": {
        "type": "Point",
        "coordinates": [
          -39.940968,
          -6.802663
        ]
      },
      "properties": {
        "label": "ABALPPAAPP",
        "level": 1,
        "pos": "-106952.226,-21239.626",
        "weight": "835.7577481146266"
      }
    },
    {
      "type": "Feature",
      "id": "556",
      "geometry": {
        "type": "Point",
        "coordinates": [
          -33.78911,
          -2.878048
        ]
      },
      "properties": {
        "label": "ABALPPAPAA",
        "level": 1,
        "pos": "-89778.48899999999,-10289.092",
        "weight": "808.7051754839595"
      }
    },
    {
      "type": "Feature",
      "id": "555",
      "geometry": {
        "type": "Point",
        "coordinates": [
          -31.462552,
          0.306391
        ]
      },
      "properties": {
        "label": "ABALPPAPAP",
        "level": 2,
        "pos": "-83283.593,-1433.8809999999999",
        "weight": "781.4606302026979"
      }
    },
    {
      "type": "Feature",
      "id": "553",
      "geometry": {
        "type": "Point",
        "coordinates": [
          -45.439538,
          -7.651744
        ]
      },
      "properties": {
        "label": "ABALPPAPPA",
        "level": 2,
        "pos": "-122302.228,-23618.756999999998",
        "weight": "758.1748887305649"
      }
    },
    {
      "type": "Feature",
      "id": "552",
      "geometry": {
        "type": "Point",
        "coordinates": [
          -44.545574,
          -5.799641
        ]
      },
      "properties": {
        "label": "ABALPPAPPP",
        "level": 3,
        "pos": "-119806.60500000001,-18434.532",
        "weight": "628.3808719507614"
      }
    },
    {
      "type": "Feature",
      "id": "547",
      "geometry": {
        "type": "Point",
        "coordinates": [
          -47.321901,
          -5.069724
        ]
      },
      "properties": {
        "label": "ABALPPPAAA",
        "level": 2,
        "pos": "-127557.096,-16396.387000000002",
        "weight": "783.0556170721529"
      }
    },
    {
      "type": "Feature",
      "id": "546",
      "geometry": {
        "type": "Point",
        "coordinates": [
          -46.587962,
          -3.853403
        ]
      },
      "properties": {
        "label": "ABALPPPAAP",
        "level": 1,
        "pos": "-125508.20899999999,-13005.02",
        "weight": "797.439480426541"
      }
    },
    {
      "type": "Feature",
      "id": "544",
      "geometry": {
        "type": "Point",
        "coordinates": [
          -41.998626,
          -0.431139
        ]
      },
      "properties": {
        "label": "ABALPPPAPA",
        "level": 2,
        "pos": "-112696.461,-3484.0170000000003",
        "weight": "780.5403243883101"
      }
    },
    {
      "type": "Feature",
      "id": "543",
      "geometry": {
        "type": "Point",
        "coordinates": [
          -49.857336,
          -2.573869
        ]
      },
      "properties": {
        "label": "ABALPPPAPP",
        "level": 3,
        "pos": "-134635.109,-9442.595000000001",
        "weight": "634.7966952370859"
      }
    },
    {
      "type": "Feature",
      "id": "539",
      "geometry": {
        "type": "Point",
        "coordinates": [
          -49.694933,
          -0.300323
        ]
      },
      "properties": {
        "label": "ABALPPPPAA",
        "level": 2,
        "pos": "-134181.74,-3120.382",
        "weight": "747.3656859934239"
      }
    },
    {
      "type": "Feature",
      "id": "538",
      "geometry": {
        "type": "Point",
        "coordinates": [
          -51.429275,
          0.555837
        ]
      },
      "properties": {
        "label": "ABALPPPPAP",
        "level": 2,
        "pos": "-139023.39,-740.466",
        "weight": "693.458325060176"
      }
    },
    {
      "type": "Feature",
      "id": "535",
      "geometry": {
        "type": "Point",
        "coordinates": [
          -50.578724,
          1.422352
        ]
      },
      "properties": {
        "label": "ABALPPPPPA",
        "level": 2,
        "pos": "-136648.959,1668.579",
        "weight": "760.7042650650164"
      }
    },
    {
      "type": "Feature",
      "id": "534",
      "geometry": {
        "type": "Point",
        "coordinates": [
          -51.068895,
          3.900167
        ]
      },
      "properties": {
        "label": "ABALPPPPPP",
        "level": 3,
        "pos": "-138017.34300000002,8564.175000000001",
        "weight": "514.1613130658557"
      }
    },
    {
      "type": "Feature",
      "id": "1234",
      "geometry": {
        "type": "Point",
        "coordinates": [
          -46.809044,
          -10.584276
        ]
      },
      "properties": {
        "label": "ABALPPAAAPA",
        "level": 4,
        "pos": "-126125.387,-31875.64",
        "weight": "277.7142024204012"
      }
    },
    {
      "type": "Feature",
      "id": "1233",
      "geometry": {
        "type": "Point",
        "coordinates": [
          -46.176486,
          -9.670986
        ]
      },
      "properties": {
        "label": "ABALPPAAAPP",
        "level": 4,
        "pos": "-124359.52,-29296.736",
        "weight": "277.7142024204012"
      }
    },
    {
      "type": "Feature",
      "id": "1231",
      "geometry": {
        "type": "Point",
        "coordinates": [
          -50.973643,
          -11.392255
        ]
      },
      "properties": {
        "label": "ABALPPAAPPA",
        "level": 4,
        "pos": "-137751.42500000002,-34163.563",
        "weight": "315.06355772865913"
      }
    },
    {
      "type": "Feature",
      "id": "1230",
      "geometry": {
        "type": "Point",
        "coordinates": [
          -49.71288,
          -10.468607
        ]
      },
      "properties": {
        "label": "ABALPPAAPPP",
        "level": 4,
        "pos": "-134231.84399999998,-31548.607",
        "weight": "315.06355772865913"
      }
    },
    {
      "type": "Feature",
      "id": "1229",
      "geometry": {
        "type": "Point",
        "coordinates": [
          -43.782136,
          -6.675667
        ]
      },
      "properties": {
        "label": "ABALPPAPAAA",
        "level": 4,
        "pos": "-117675.369,-20884.159",
        "weight": "311.7436929325968"
      }
    },
    {
      "type": "Feature",
      "id": "1228",
      "geometry": {
        "type": "Point",
        "coordinates": [
          -40.870942,
          -5.862862
        ]
      },