{
  "type": "FeatureCollection",
  "features": [
    {
      "type": "Feature",
      "id": "667",
      "geometry": {
        "type": "Point",
        "coordinates": [
          -16.907001,
          8.761119
        ]
      },
      "properties": {
        "cell": "zygote",
        "label": "zygote",
        "level": 1,
        "pos": "-27117.671080652628,22912.682793638418",
        "weight": "1600.9501429802071"
      }
    },
    {
      "type": "Feature",
      "id": "5",
      "geometry": {
        "type": "Point",
        "coordinates": [
          -2.405619,
          -1.890939
        ]
      },
      "properties": {
        "cell": "P0A",
        "label": "P0A",
        "level": 1,
        "pos": "-432.21751172919716,2455.306637073226",
        "weight": "1000.0"
      }
    },
    {
      "type": "Feature",
      "id": "4",
      "geometry": {
        "type": "Point",
        "coordinates": [
          -29.322659,
          19.943084
        ]
      },
      "properties": {
        "cell": "P1",
        "label": "P1",
        "level": 3,
        "pos": "-49964.96661871225,45047.378422297836",
        "weight": "653.0618833288306"
      }
    },
    {
      "type": "Feature",
      "id": "666",
      "geometry": {
        "type": "Point",
        "coordinates": [
          18.75031,
          9.235255
        ]
      },
      "properties": {
        "cell": "ABA",
        "label": "ABA",
        "level": 3,
        "pos": "38498.93263004015,23831.616474021244",
        "weight": "797.2824415548226"
      }
    },
    {
      "type": "Feature",
      "id": "424",
      "geometry": {
        "type": "Point",
        "coordinates": [
          -7.862492,
          -21.719217
        ]
      },
      "properties": {
        "cell": "ABP",
        "label": "ABP",
        "level": 3,
        "pos": "-10473.959610913116,-36533.88152697454",
        "weight": "796.2799659498116"
      }
    },
    {
      "type": "Feature",
      "id": "107",
      "geometry": {
        "type": "Point",
        "coordinates": [
          -24.307564,
          28.115908
        ]
      },
      "properties": {
        "cell": "EMS",
        "label": "EMS",
        "level": 3,
        "pos": "-40736.18547421745,62197.27389342217",
        "weight": "434.72609477982064"
      }
    },
    {
      "type": "Feature",
      "id": "3",
      "geometry": {
        "type": "Point",
        "coordinates": [
          -42.630834,
          21.45143
        ]
      },
      "properties": {
        "cell": "P2",
        "label": "P2",
        "level": 3,
        "pos": "-74454.67530573238,48134.087957270734",
        "weight": "287.3757737327604"
      }
    },
    {
      "type": "Feature",
      "id": "665",
      "geometry": {
        "type": "Point",
        "coordinates": [
          34.028542,
          -0.745042
        ]
      },
      "properties": {
        "cell": "ABAL",
        "label": "ABAL",
        "level": 3,
        "pos": "66613.93516542925,4649.494956476456",
        "weight": "515.9096276737638"
      }
    },
    {
      "type": "Feature",
      "id": "531",
      "geometry": {
        "type": "Point",
        "coordinates": [
          25.592184,
          24.581007
        ]
      },
      "properties": {
        "cell": "ABAR",
        "label": "ABAR",
        "level": 3,
        "pos": "51089.34686627737,54644.21621726738",
        "weight": "425.3639920957347"
      }
    },
    {
      "type": "Feature",
      "id": "423",
      "geometry": {
        "type": "Point",
        "coordinates": [
          5.338554,
          -34.727312
        ]
      },
      "properties": {
        "cell": "ABPL",
        "label": "ABPL",
        "level": 3,
        "pos": "13818.613724177365,-64891.123408565334",
        "weight": "453.4740877047216"
      }
    },
    {
      "type": "Feature",
      "id": "308",
      "geometry": {
        "type": "Point",
        "coordinates": [
          -25.512123,
          -26.964863
        ]
      },
      "properties": {
        "cell": "ABPR",
        "label": "ABPR",
        "level": 3,
        "pos": "-42952.822952165436,-47560.705152761235",
        "weight": "486.89900313146194"
      }
    },
    {
      "type": "Feature",
      "id": "117",
      "geometry": {
        "type": "Point",
        "coordinates": [
          -25.970714,
          30.307193
        ]
      },
      "properties": {
        "cell": "E",
        "label": "E",
        "level": 3,
        "pos": "-43796.718624723515,67003.66908567994",
        "weight": "84.29120726947734"
      }
    },
    {
      "type": "Feature",
      "id": "97",
      "geometry": {
        "type": "Point",
        "coordinates": [
          -19.47139,
          33.668037
        ]
      },
      "properties": {
        "cell": "MS",
        "label": "MS",
        "level": 3,
        "pos": "-31836.662624364133,74590.91941578405",
        "weight": "373.91150689074544"
      }
    },
    {
      "type": "Feature",
      "id": "183",
      "geometry": {
        "type": "Point",
        "coordinates": [
          -50.519643,
          27.19572
        ]
      },
      "properties": {
        "cell": "C",
        "label": "C",
        "level": 3,
        "pos": "-88971.66762286943,60208.54415977413",
        "weight": "201.80173751110794"
      }
    },
    {
      "type": "Feature",
      "id": "2",
      "geometry": {
        "type": "Point",
        "coordinates": [
          -49.239375,
          17.904229
        ]
      },
      "properties": {
        "cell": "P3",
        "label": "P3",
        "level": 3,
        "pos": "-86615.72406783485,40921.18108488625",
        "weight": "92.39936589170206"
      }
    },
    {
      "type": "Feature",
      "id": "664",
      "geometry": {
        "type": "Point",
        "coordinates": [
          48.00747,
          -3.874753
        ]
      },
      "properties": {
        "cell": "ABALA",
        "label": "ABALA",
        "level": 3,
        "pos": "92337.96593305637,-1347.263391421374",
        "weight": "273.0964432505357"
      }
    },
    {
      "type": "Feature",
      "id": "599",
      "geometry": {
        "type": "Point",
        "coordinates": [
          32.869478,
          -7.173424
        ]
      },
      "properties": {
        "cell": "ABALP",
        "label": "ABALP",
        "level": 3,
        "pos": "64481.03271781716,-7692.175830573193",
        "weight": "284.6877798223749"
      }
    },
    {
      "type": "Feature",
      "id": "530",
      "geometry": {
        "type": "Point",
        "coordinates": [
          36.030656,
          31.776821
        ]
      },
      "properties": {
        "cell": "ABARA",
        "label": "ABARA",
        "level": 3,
        "pos": "70298.22790029176,70287.33017200328",
        "weight": "280.83759385465464"
      }
    },
    {
      "type": "Feature",
      "id": "463",
      "geometry": {
        "type": "Point",
        "coordinates": [
          21.561531,
          31.134556
        ]
      },
      "properties": {
        "cell": "ABARP",
        "label": "ABARP",
        "level": 3,
        "pos": "43672.13624340501,68846.03997960647",
        "weight": "169.01568789366283"
      }
    },
    {
      "type": "Feature",
      "id": "422",
      "geometry": {
        "type": "Point",
        "coordinates": [
          15.524672,
          -38.763301
        ]
      },
      "properties": {
        "cell": "ABPLA",
        "label": "ABPLA",
        "level": 3,
        "pos": "32563.111249814916,-74537.13362900217",
        "weight": "209.8623210198745"
      }
    },
    {
      "type": "Feature",
      "id": "373",
      "geometry": {
        "type": "Point",
        "coordinates": [
          5.06266,
          -44.055496
        ]
      },
      "properties": {
        "cell": "ABPLP",
        "label": "ABPLP",
        "level": 3,
        "pos": "13310.909275404765,-88057.00401100432",
        "weight": "273.1236290296546"
      }
    },
    {
      "type": "Feature",
      "id": "307",
      "geometry": {
        "type": "Point",
        "coordinates": [
          -33.227766,
          -36.27639
        ]
      },
      "properties": {
        "cell": "ABPRA",
        "label": "ABPRA",
        "level": 3,
        "pos": "-57151.15073557083,-68533.86320721483",
        "weight": "245.7373547897095"
      }
    },
    {
      "type": "Feature",
      "id": "249",
      "geometry": {
        "type": "Point",
        "coordinates": [
          -33.707447,
          -20.908097
        ]
      },
      "properties": {
        "cell": "ABPRP",
        "label": "ABPRP",
        "level": 3,
        "pos": "-58033.86089618213,-34867.159701365104",
        "weight": "276.9874078869343"
      }
    },
    {
      "type": "Feature",
      "id": "116",
      "geometry": {
        "type": "Point",
        "coordinates": [
          -26.795201,
          33.390357
        ]
      },
      "properties": {
        "cell": "EA",
        "label": "EA",
        "level": 3,
        "pos": "-45313.93871966987,73953.25846141488",
        "weight": "40.386173992384585"
      }
    },
    {
      "type": "Feature",
      "id": "106",
      "geometry": {
        "type": "Point",
        "coordinates": [
          -27.728452,
          29.295084
        ]
      },
      "properties": {
        "cell": "EP",
        "label": "EP",
        "level": 3,
        "pos": "-47031.30960660071,64770.903626916675",
        "weight": "40.386173992384585"
      }
    },
    {
      "type": "Feature",
      "id": "96",
      "geometry": {
        "type": "Point",
        "coordinates": [
          -15.565294,
          30.990995
        ]
      },
      "properties": {
        "cell": "MSA",
        "label": "MSA",
        "level": 3,
        "pos": "-24648.66012342925,68525.21941811094",
        "weight": "197.45541107446695"
      }
    },
    {
      "type": "Feature",
      "id": "50",
      "geometry": {
        "type": "Point",
        "coordinates": [
          -18.609266,
          41.749459
        ]
      },
      "properties": {
        "cell": "MSP",
        "label": "MSP",
        "level": 3,
        "pos": "-30250.183636774025,94181.02394746593",
        "weight": "193.50327843505065"
      }
    },
    {
      "type": "Feature",
      "id": "182",
      "geometry": {
        "type": "Point",
        "coordinates": [
          -56.248263,
          28.459288
        ]
      },
      "properties": {
        "cell": "CA",
        "label": "CA",
        "level": 3,
        "pos": "-99513.483179409,62943.74315898459",
        "weight": "101.45902678308977"
      }
    },
    {
      "type": "Feature",
      "id": "159",
      "geometry": {
        "type": "Point",
        "coordinates": [
          -50.910459,
          32.024232
        ]
      },
      "properties": {
        "cell": "CP",
        "label": "CP",
        "level": 3,
        "pos": "-89690.85186665613,70845.19584982819",
        "weight": "101.45902678308977"
      }
    },
    {
      "type": "Feature",
      "id": "136",
      "geometry": {
        "type": "Point",
        "coordinates": [
          -55.615224,
          14.305378
        ]
      },
      "properties": {
        "cell": "D",
        "label": "D",
        "level": 3,
        "pos": "-98348.56451084914,33749.211526378866",
        "weight": "84.29120726947734"
      }
    },
    {
      "type": "Feature",
      "id": "1",
      "geometry": {
        "type": "Point",
        "coordinates": [
          -48.451607,
          16.395769
        ]
      },
      "properties": {
        "cell": "P4",
        "label": "P4",
        "level": 4,
        "pos": "-85166.06902180817,37899.098942452125",
        "weight": "4.528131334498924"
      }
    },
    {
      "type": "Feature",
      "id": "663",
      "geometry": {
        "type": "Point",
        "coordinates": [
          56.964495,
          -6.388717
        ]
      },
      "properties": {
        "cell": "ABALAA",
        "label": "ABALAA",
        "level": 3,
        "pos": "108820.68840467739,-6179.435879863427",
        "weight": "131.4075607049952"
      }
    },
    {
      "type": "Feature",
      "id": "633",
      "geometry": {
        "type": "Point",
        "coordinates": [
          50.57343,
          0.26617
        ]
      },
      "properties": {
        "cell": "ABALAP",
        "label": "ABALAP",
        "level": 3,
        "pos": "97059.85216992322,6585.27082869077",
        "weight": "148.23555797962084"
      }
    },
    {
      "type": "Feature",
      "id": "598",
      "geometry": {
        "type": "Point",
        "coordinates": [
          25.857541,
          -6.445783
        ]
      },
      "properties": {
        "cell": "ABALPA",
        "label": "ABALPA",
        "level": 3,
        "pos": "51577.664517038254,-6289.365607345675",
        "weight": "144.03875332813405"
      }
    },
    {
      "type": "Feature",
      "id": "565",
      "geometry": {
        "type": "Point",
        "coordinates": [
          36.903131,
          -12.82979
        ]
      },
      "properties": {
        "cell": "ABALPP",
        "label": "ABALPP",
        "level": 3,
        "pos": "71903.76156390482,-18691.863649237428",
        "weight": "148.19477931094244"
      }
    },
    {
      "type": "Feature",
      "id": "529",
      "geometry": {
        "type": "Point",
        "coordinates": [
          41.642343,
          37.575411
        ]
      },
      "properties": {
        "cell": "ABARAA",
        "label": "ABARAA",
        "level": 3,
        "pos": "80624.85909838701,83796.12887442735",
        "weight": "139.82835578708776"
      }
    },
    {
      "type": "Feature",
      "id": "497",
      "geometry": {
        "type": "Point",
        "coordinates": [
          43.884735,
          29.677921
        ]
      },
      "properties": {
        "cell": "ABARAP",
        "label": "ABARAP",
        "level": 3,
        "pos": "84751.30929710687,65612.80859312307",
        "weight": "148.23555797962084"
      }
    },
    {
      "type": "Feature",
      "id": "462",
      "geometry": {
        "type": "Point",
        "coordinates": [
          20.036643,
          38.590589
        ]
      },
      "properties": {
        "cell": "ABARPA",
        "label": "ABARPA",
        "level": 3,
        "pos": "40866.03669598638,86265.12147419958",
        "weight": "92.94987791886064"
      }
    },
    {
      "type": "Feature",
      "id": "441",
      "geometry": {
        "type": "Point",
        "coordinates": [
          18.009559,
          30.154679
        ]
      },
      "properties": {
        "cell": "ABARPP",
        "label": "ABARPP",
        "level": 3,
        "pos": "37135.796538402596,66665.76073679682",
        "weight": "75.5917579514156"
      }
    },
    {
      "type": "Feature",
      "id": "421",
      "geometry": {
        "type": "Point",
        "coordinates": [
          18.369047,
          -36.66902
        ]
      },
      "properties": {
        "cell": "ABPLAA",
        "label": "ABPLAA",
        "level": 3,
        "pos": "37797.329739932386,-69468.53171098314",
        "weight": "97.26222213160295"
      }
    },
    {
      "type": "Feature",
      "id": "399",
      "geometry": {
        "type": "Point",
        "coordinates": [
          22.913308,
          -42.952731
        ]
      },
      "properties": {
        "cell": "ABPLAP",
        "label": "ABPLAP",
        "level": 3,
        "pos": "46159.678789583115,-85146.4576573417",
        "weight": "114.37567008697751"
      }
    },
    {
      "type": "Feature",
      "id": "372",
      "geometry": {
        "type": "Point",
        "coordinates": [
          5.075229,
          -51.446062
        ]
      },
      "properties": {
        "cell": "ABPLPA",
        "label": "ABPLPA",
        "level": 3,
        "pos": "13334.04301142114,-109148.95388812064",
        "weight": "139.82835578708776"
      }
    },
    {
      "type": "Feature",
      "id": "340",
      "geometry": {
        "type": "Point",
        "coordinates": [
          -0.948185,
          -44.448928
        ]
      },
      "properties": {
        "cell": "ABPLPP",
        "label": "ABPLPP",
        "level": 3,
        "pos": "2249.7459675596715,-89108.47058814278",
        "weight": "139.84194867664726"
      }
    },
    {
      "type": "Feature",
      "id": "306",
      "geometry": {
        "type": "Point",
        "coordinates": [
          -40.529063,
          -40.612874
        ]
      },
      "properties": {
        "cell": "ABPRAA",
        "label": "ABPRAA",
        "level": 3,
        "pos": "-70587.00291668151,-79138.56934941423",
        "weight": "135.5228080191252"
      }
    },
    {
      "type": "Feature",
      "id": "275",
      "geometry": {
        "type": "Point",
        "coordinates": [
          -31.291053,
          -40.901321
        ]
      },
      "properties": {
        "cell": "ABPRAP",
        "label": "ABPRAP",
        "level": 3,
        "pos": "-53587.21124121692,-79867.5200847149",
        "weight": "114.37567008697751"
      }
    },
    {
      "type": "Feature",
      "id": "248",
      "geometry": {
        "type": "Point",
        "coordinates": [
          -32.918039,
          -15.279336
        ]
      },
      "properties": {
        "cell": "ABPRPA",
        "label": "ABPRPA",
        "level": 3,
        "pos": "-56581.19134383511,-23526.080690015682",
        "weight": "144.03875332813405"
      }
    },
    {
      "type": "Feature",
      "id": "215",
      "geometry": {
        "type": "Point",
        "coordinates": [
          -42.353842,
          -20.111027
        ]
      },
      "properties": {
        "cell": "ABPRPP",
        "label": "ABPRPP",
        "level": 3,
        "pos": "-73944.96068158343,-33238.065851665575",
        "weight": "139.84194867664726"
      }
    },
    {
      "type": "Feature",
      "id": "662",
      "geometry": {
        "type": "Point",
        "coordinates": [
          60.88003,
          -4.603699
        ]
      },
      "properties": {
        "cell": "ABALAAA",
        "label": "ABALAAA",
        "level": 3,
        "pos": "116026.06020331099,-2746.4959405457416",
        "weight": "66.85152996467548"
      }
    },
    {
      "type": "Feature",
      "id": "647",
      "geometry": {
        "type": "Point",
        "coordinates": [
          60.945708,
          -10.065307
        ]
      },
      "properties": {
        "cell": "ABALAAP",
        "label": "ABALAAP",
        "level": 3,
        "pos": "116146.92129498853,-13291.902072917712",
        "weight": "62.46442485935607"
      }
    },
    {
      "type": "Feature",
      "id": "632",
      "geometry": {
        "type": "Point",
        "coordinates": [
          46.87824,
          1.583674
        ]
      },
      "properties": {
        "cell": "ABALAPA",
        "label": "ABALAPA",
        "level": 3,
        "pos": "90259.95599952822,9107.718221656856",
        "weight": "75.5917579514156"
      }
    },
    {
      "type": "Feature",
      "id": "615",
      "geometry": {
        "type": "Point",
        "coordinates": [
          55.128575,
          4.435877
        ]
      },
      "properties": {
        "cell": "ABALAPP",
        "label": "ABALAPP",
        "level": 3,
        "pos": "105442.23461118121,14575.7340322349",
        "weight": "71.21144929087595"
      }
    },
    {
      "type": "Feature",
      "id": "597",
      "geometry": {
        "type": "Point",
        "coordinates": [
          21.27847,
          -4.318431
        ]
      },
      "properties": {
        "cell": "ABALPAA",
        "label": "ABALPAA",
        "level": 3,
        "pos": "43151.252346693014,-2198.7552871163853",
        "weight": "66.85152996467548"
      }
    },
    {
      "type": "Feature",
      "id": "582",
      "geometry": {
        "type": "Point",
        "coordinates": [
          22.24781,
          -7.81001
        ]
      },
      "properties": {
        "cell": "ABALPAP",
        "label": "ABALPAP",
        "level": 3,
        "pos": "44935.031596096,-8921.280936883702",
        "weight": "75.5917579514156"
      }
    },
    {
      "type": "Feature",
      "id": "564",
      "geometry": {
        "type": "Point",
        "coordinates": [
          35.045622,
          -14.700111
        ]
      },
      "properties": {
        "cell": "ABALPPA",
        "label": "ABALPPA",
        "level": 3,
        "pos": "68485.57416004442,-22378.22049106151",
        "weight": "62.4508319697966"
      }
    },
    {
      "type": "Feature",
      "id": "550",
      "geometry": {
        "type": "Point",
        "coordinates": [
          40.58291,
          -17.03085
        ]
      },
      "properties": {
        "cell": "ABALPPP",
        "label": "ABALPPP",
        "level": 3,
        "pos": "78675.2933617594,-27016.955870681402",
        "weight": "84.2844108246976"
      }
    },
    {
      "type": "Feature",
      "id": "528",
      "geometry": {
        "type": "Point",
        "coordinates": [
          41.584763,
          42.042194
        ]
      },
      "properties": {
        "cell": "ABARAAA",
        "label": "ABARAAA",
        "level": 3,
        "pos": "80518.90024930789,94933.85304100983",
        "weight": "62.46442485935607"
      }
    },
    {
      "type": "Feature",
      "id": "514",
      "geometry": {
        "type": "Point",
        "coordinates": [
          48.309166,
          39.024375
        ]
      },
      "properties": {
        "cell": "ABARAAP",
        "label": "ABARAAP",
        "level": 3,
        "pos": "92893.14565020663,87330.74181895508",
        "weight": "75.5917579514156"
      }
    },
    {
      "type": "Feature",
      "id": "496",
      "geometry": {
        "type": "Point",
        "coordinates": [
          42.261444,
          26.521982
        ]
      },
      "properties": {
        "cell": "ABARAPA",
        "label": "ABARAPA",
        "level": 3,
        "pos": "81764.12750522481,58762.85160150813",
        "weight": "71.22504218043542"
      }
    },
    {
      "type": "Feature",
      "id": "480",
      "geometry": {
        "type": "Point",
        "coordinates": [
          50.187021,
          28.50784
        ]
      },
      "properties": {
        "cell": "ABARAPP",
        "label": "ABARAPP",
        "level": 3,
        "pos": "96348.78466145274,63049.481680194556",
        "weight": "75.5917579514156"
      }
    },
    {
      "type": "Feature",
      "id": "461",
      "geometry": {
        "type": "Point",
        "coordinates": [
          21.441272,
          41.490943
        ]
      },
      "properties": {
        "cell": "ABARPAA",
        "label": "ABARPAA",
        "level": 3,
        "pos": "43450.841888562354,93519.04329595358",
        "weight": "44.80726132160267"
      }
    },
    {
      "type": "Feature",
      "id": "451",
      "geometry": {
        "type": "Point",
        "coordinates": [
          17.347322,
          43.105399
        ]
      },
      "properties": {
        "cell": "ABARPAP",
        "label": "ABARPAP",
        "level": 3,
        "pos": "35917.14520223248,97697.74181410343",
        "weight": "44.80726132160267"
      }
    },
    {
      "type": "Feature",
      "id": "440",
      "geometry": {
        "type": "Point",
        "coordinates": [
          14.154588,
          30.770719
        ]
      },
      "properties": {
        "cell": "ABARPPA",
        "label": "ABARPPA",
        "level": 3,
        "pos": "30041.882143128914,68033.9045032996",
        "weight": "35.93790088404755"
      }
    },
    {
      "type": "Feature",
      "id": "432",
      "geometry": {
        "type": "Point",
        "coordinates": [
          17.492583,
          27.535795
        ]
      },
      "properties": {
        "cell": "ABARPPP",
        "label": "ABARPPP",
        "level": 3,
        "pos": "36184.45873931609,60941.567609104255",
        "weight": "35.93790088404755"
      }
    },
    {
      "type": "Feature",
      "id": "661",
      "geometry": {
        "type": "Point",
        "coordinates": [
          63.322302,
          -5.077601
        ]
      },
      "properties": {
        "cell": "ABALAAAA",
        "label": "ABALAAAA",
        "level": 3,
        "pos": "120520.33239078936,-3656.928289389371",
        "weight": "31.482831330930793"
      }
    },
    {
      "type": "Feature",
      "id": "654",
      "geometry": {
        "type": "Point",
        "coordinates": [
          63.603809,
          -2.60405
        ]
      },
      "properties": {
        "cell": "ABALAAAP",
        "label": "ABALAAAP",
        "level": 3,
        "pos": "121038.35964034997,1089.1605516909815",
        "weight": "31.482831330930793"
      }
    },
    {
      "type": "Feature",
      "id": "646",
      "geometry": {
        "type": "Point",
        "coordinates": [
          65.003776,
          -11.056051
        ]
      },
      "properties": {
        "cell": "ABALAAPA",
        "label": "ABALAAPA",
        "level": 3,
        "pos": "123614.58114605254,-15221.15771909819",
        "weight": "27.014168888254556"
      }
    },
    {
      "type": "Feature",
      "id": "640",
      "geometry": {
        "type": "Point",
        "coordinates": [
          62.466863,
          -13.213238
        ]
      },
      "properties": {
        "cell": "ABALAAPP",
        "label": "ABALAAPP",
        "level": 3,
        "pos": "118946.14875349955,-19445.258705502674",
        "weight": "31.476034886151055"
      }
    },
    {
      "type": "Feature",
      "id": "631",
      "geometry": {
        "type": "Point",
        "coordinates": [
          47.035647,
          3.669857
        ]
      },
      "properties": {
        "cell": "ABALAPAA",
        "label": "ABALAPAA",
        "level": 3,
        "pos": "90549.61520892484,13105.672258693096",
        "weight": "35.93790088404755"
      }
    },
    {
      "type": "Feature",
      "id": "623",
      "geometry": {
        "type": "Point",
        "coordinates": [
          44.31678,
          2.357587
        ]
      },
      "properties": {
        "cell": "ABALAPAP",
        "label": "ABALAPAP",
        "level": 3,
        "pos": "85546.35628741654,10590.085448069365",
        "weight": "35.93790088404755"
      }
    },
    {
      "type": "Feature",
      "id": "614",
      "geometry": {
        "type": "Point",
        "coordinates": [
          54.731102,
          7.593222
        ]
      },
      "properties": {
        "cell": "ABALAPPA",
        "label": "ABALAPPA",
        "level": 3,
        "pos": "104710.80422195769,20653.999965173367",
        "weight": "27.014168888254556"
      }
    },
    {
      "type": "Feature",
      "id": "608",
      "geometry": {
        "type": "Point",
        "coordinates": [
          58.136454,
          6.639802
        ]
      },
      "properties": {
        "cell": "ABALAPPP",
        "label": "ABALAPPP",
        "level": 3,
        "pos": "110977.33395078582,18814.700006482057",
        "weight": "40.386173992384585"
      }
    },
    {
      "type": "Feature",
      "id": "596",
      "geometry": {
        "type": "Point",
        "coordinates": [
          16.609353,
          -3.960465
        ]
      },
      "properties": {
        "cell": "ABALPAAA",
        "label": "ABALPAAA",
        "level": 3,
        "pos": "34559.13571439572,-1511.7240576264624",
        "weight": "31.482831330930793"
      }
    },
    {
      "type": "Feature",
      "id": "589",
      "geometry": {
        "type": "Point",
        "coordinates": [
          20.009358,
          -1.730123
        ]
      },
      "properties": {
        "cell": "ABALPAAP",
        "label": "ABALPAAP",
        "level": 3,
        "pos": "40815.83317810857,2763.3117948997915",
        "weight": "31.482831330930793"
      }
    },
    {
      "type": "Feature",
      "id": "581",
      "geometry": {
        "type": "Point",
        "coordinates": [
          22.369291,
          -9.841369
        ]
      },
      "properties": {
        "cell": "ABALPAPA",
        "label": "ABALPAPA",
        "level": 3,
        "pos": "45158.584329083016,-12856.671250490705",
        "weight": "35.93790088404755"
      }
    },
    {
      "type": "Feature",
      "id": "573",
      "geometry": {
        "type": "Point",
        "coordinates": [
          17.752158,
          -8.439453
        ]
      },
      "properties": {
        "cell": "ABALPAPP",
        "label": "ABALPAPP",
        "level": 3,
        "pos": "36662.13249753397,-10138.430543136743",
        "weight": "35.93790088404755"
      }
    },
    {
      "type": "Feature",
      "id": "563",
      "geometry": {
        "type": "Point",
        "coordinates": [
          33.894334,
          -13.562622
        ]
      },
      "properties": {
        "cell": "ABALPPAA",
        "label": "ABALPPAA",
        "level": 3,
        "pos": "66366.9720214352,-20132.757651783828",
        "weight": "22.538710000798584"
      }
    },
    {
      "type": "Feature",
      "id": "558",
      "geometry": {
        "type": "Point",
        "coordinates": [
          33.633124,
          -16.749886
        ]
      },
      "properties": {
        "cell": "ABALPPAP",
        "label": "ABALPPAP",
        "level": 3,
        "pos": "65886.28934006038,-26454.86854198641",
        "weight": "35.93790088404755"
      }
    },
    {
      "type": "Feature",
      "id": "549",
      "geometry": {
        "type": "Point",
        "coordinates": [
          41.114912,
          -19.714063
        ]
      },
      "properties": {
        "cell": "ABALPPPA",
        "label": "ABALPPPA",
        "level": 3,
        "pos": "79654.28123883843,-32429.848843940625",
        "weight": "35.93790088404755"
      }
    },
    {
      "type": "Feature",
      "id": "541",
      "geometry": {
        "type": "Point",
        "coordinates": [
          43.822731,
          -18.909885
        ]
      },
      "properties": {
        "cell": "ABALPPPP",
        "label": "ABALPPPP",
        "level": 3,
        "pos": "84637.20724607616,-30798.62526615748",
        "weight": "44.82085421116214"
      }
    },
    {
      "type": "Feature",
      "id": "660",
      "geometry": {
        "type": "Point",
        "coordinates": [
          63.762526,
          -6.342698
        ]
      },
      "properties": {
        "cell": "ABALAAAAL",
        "label": "ABALAAAAL",
        "level": 3,
        "pos": "121330.42638606062,-6090.800690642569",
        "weight": "13.55381000198796"
      }
    },
    {
      "type": "Feature",
      "id": "657",
      "geometry": {
        "type": "Point",
        "coordinates": [
          65.808787,
          -4.882017
        ]
      },
      "properties": {
        "cell": "ABALAAAAR",
        "label": "ABALAAAAR",
        "level": 3,
        "pos": "125095.95593765326,-3281.1060054621908",
        "weight": "13.55381000198796"
      }
    },
    {
      "type": "Feature",
      "id": "653",
      "geometry": {
        "type": "Point",
        "coordinates": [
          64.38454,
          -0.895767
        ]
      },
      "properties": {
        "cell": "ABALAAAPA",
        "label": "ABALAAAPA",
        "level": 3,
        "pos": "122475.06471767348,4360.926839739561",
        "weight": "13.55381000198796"
      }
    },
    {
      "type": "Feature",
      "id": "650",
      "geometry": {
        "type": "Point",
        "coordinates": [
          66.953064,
          -1.580108
        ]
      },
      "properties": {
        "cell": "ABALAAAPP",
        "label": "ABALAAAPP",
        "level": 3,
        "pos": "127201.66030120502,3050.599027555505",
        "weight": "13.55381000198796"
      }
    },
    {
      "type": "Feature",
      "id": "645",
      "geometry": {
        "type": "Point",
        "coordinates": [
          68.103797,
          -12.520611
        ]
      },
      "properties": {
        "cell": "ABALAAPAA",
        "label": "ABALAAPAA",
        "level": 3,
        "pos": "129319.24025371965,-18085.223737131495",
        "weight": "13.55381000198796"
      }
    },
    {
      "type": "Feature",
      "id": "642",
      "geometry": {
        "type": "Point",
        "coordinates": [
          67.2925,
          -10.668354
        ]
      },
      "properties": {
        "cell": "ABALAAPAP",
        "label": "ABALAAPAP",
        "level": 3,
        "pos": "127826.29085614752,-14465.45936488611",
        "weight": "9.04436889063331"
      }
    },
    {
      "type": "Feature",
      "id": "639",
      "geometry": {
        "type": "Point",
        "coordinates": [
          64.160303,
          -14.311392
        ]
      },
      "properties": {
        "cell": "ABALAAPPA",
        "label": "ABALAAPPA",
        "level": 3,
        "pos": "122062.42074519956,-21609.602339082183",
        "weight": "9.04436889063331"
      }
    },
    {
      "type": "Feature",
      "id": "637",
      "geometry": {
        "type": "Point",
        "coordinates": [
          63.237844,
          -16.136539
        ]
      },
      "properties": {
        "cell": "ABALAAPPP",
        "label": "ABALAAPPP",
        "level": 3,
        "pos": "120364.91280130204,-25230.678709778123",
        "weight": "18.049658223783137"
      }
    },
    {
      "type": "Feature",
      "id": "630",
      "geometry": {
        "type": "Point",
        "coordinates": [
          48.975452,
          3.612004
        ]
      },
      "properties": {
        "cell": "ABALAPAAA",
        "label": "ABALAPAAA",
        "level": 3,
        "pos": "94119.24799337104,12994.697443652698",
        "weight": "13.55381000198796"
      }
    },
    {
      "type": "Feature",
      "id": "627",
      "geometry": {
        "type": "Point",
        "coordinates": [
          46.74563,
          5.145487
        ]
      },
      "properties": {
        "cell": "ABALAPAAP",
        "label": "ABALAPAAP",
        "level": 3,
        "pos": "90015.9321802461,15938.887583858515",
        "weight": "18.049658223783137"
      }
    },
    {
      "type": "Feature",
      "id": "622",
      "geometry": {
        "type": "Point",
        "coordinates": [
          43.353195,
          1.193731
        ]
      },
      "properties": {
        "cell": "ABALAPAPA",
        "label": "ABALAPAPA",
        "level": 3,
        "pos": "83773.1686234814,8361.035351686258",
        "weight": "13.547013557208224"
      }
    },
    {
      "type": "Feature",
      "id": "619",
      "geometry": {
        "type": "Point",
        "coordinates": [
          42.173976,
          3.527687
        ]
      },
      "properties": {
        "cell": "ABALAPAPP",
        "label": "ABALAPAPP",
        "level": 3,
        "pos": "81603.16778566536,12832.98344289607",
        "weight": "18.049658223783137"
      }
    },
    {
      "type": "Feature",
      "id": "613",
      "geometry": {
        "type": "Point",
        "coordinates": [
          53.607616,
          7.936355
        ]
      },
      "properties": {
        "cell": "ABALAPPAA",
        "label": "ABALAPPAA",
        "level": 3,
        "pos": "102643.36149500993,21316.9278348895",
        "weight": "9.04436889063331"
      }
    },
    {
      "type": "Feature",
      "id": "611",
      "geometry": {
        "type": "Point",
        "coordinates": [
          53.523554,
          10.496535
        ]
      },
      "properties": {
        "cell": "ABALAPPAP",
        "label": "ABALAPPAP",
        "level": 3,
        "pos": "102488.6743378919,26282.34533890683",
        "weight": "13.55381000198796"
      }
    },
    {
      "type": "Feature",
      "id": "607",
      "geometry": {
        "type": "Point",
        "coordinates": [
          60.764836,
          7.383795
        ]
      },
      "properties": {
        "cell": "ABALAPPPA",
        "label": "ABALAPPPA",
        "level": 3,
        "pos": "115814.08386665837,20249.647591646204",
        "weight": "18.049658223783137"
      }
    },
    {
      "type": "Feature",
      "id": "603",
      "geometry": {
        "type": "Point",
        "coordinates": [
          58.903984,
          8.894758
        ]
      },
      "properties": {
        "cell": "ABALAPPPP",
        "label": "ABALAPPPP",
        "level": 3,
        "pos": "112389.73704557876,23171.573105742213",
        "weight": "18.049658223783137"
      }
    },
    {
      "type": "Feature",
      "id": "659",
      "geometry": {
        "type": "Point",
        "coordinates": [
          65.078654,
          -7.14064
        ]
      },
      "properties": {
        "cell": "ABALAAAALA",
        "label": "ABALAAAALA",
        "level": 3,
        "pos": "123752.36520673934,-7628.930851340624",
        "weight": "4.528131334498924"
      }
    },
    {
      "type": "Feature",
      "id": "658",
      "geometry": {
        "type": "Point",
        "coordinates": [
          63.325334,
          -7.364461
        ]
      },
      "properties": {
        "cell": "ABALAAAALP",
        "label": "ABALAAAALP",
        "level": 3,
        "pos": "120525.91085146858,-8060.837769321603",
        "weight": "4.528131334498924"
      }
    },
    {
      "type": "Feature",
      "id": "656",
      "geometry": {
        "type": "Point",
        "coordinates": [
          67.717057,
          -5.572374
        ]
      },
      "properties": {
        "cell": "ABALAAAARL",
        "label": "ABALAAAARL",
        "level": 3,
        "pos": "128607.55687064744,-4608.173253107386",
        "weight": "4.528131334498924"
      }
    },
    {
      "type": "Feature",
      "id": "655",
      "geometry": {
        "type": "Point",
        "coordinates": [
          67.353993,
          -4.234472
        ]
      },
      "properties": {
        "cell": "ABALAAAARR",
        "label": "ABALAAAARR",
        "level": 3,
        "pos": "127939.4514878915,-2037.5868292975117",
        "weight": "4.528131334498924"
      }
    },
    {
      "type": "Feature",
      "id": "652",
      "geometry": {
        "type": "Point",
        "coordinates": [
          65.879866,
          0.237329
        ]
      },
      "properties": {
        "cell": "ABALAAAPAL",
        "label": "ABALAAAPAL",
        "level": 3,
        "pos": "125226.75549784965,6530.0596700039105",
        "weight": "4.528131334498924"
      }
    },
    {
      "type": "Feature",
      "id": "651",
      "geometry": {
        "type": "Point",
        "coordinates": [
          64.169759,
          0.353231
        ]
      },
      "properties": {
        "cell": "ABALAAAPAR",
        "label": "ABALAAAPAR",
        "level": 3,
        "pos": "122079.82413550517,6751.929523645013",
        "weight": "4.528131334498924"
      }
    },
    {
      "type": "Feature",
      "id": "649",
      "geometry": {
        "type": "Point",
        "coordinates": [
          69.021817,
          -1.530828
        ]
      },
      "properties": {
        "cell": "ABALAAAPPL",
        "label": "ABALAAAPPL",
        "level": 3,
        "pos": "131008.58021183543,3144.9712318134148",
        "weight": "4.528131334498924"
      }
    },
    {
      "type": "Feature",
      "id": "648",
      "geometry": {
        "type": "Point",
        "coordinates": [
          68.695238,
          -0.133588
        ]
      },
      "properties": {
        "cell": "ABALAAAPPR",
        "label": "ABALAAAPPR",
        "level": 3,
        "pos": "130407.6135078212,5820.016886340961",
        "weight": "4.528131334498924"
      }
    },
    {
      "type": "Feature",
      "id": "644",
      "geometry": {
        "type": "Point",
        "coordinates": [
          69.505596,
          -13.776583
        ]
      },
      "properties": {
        "cell": "ABALAAPAAA",
        "label": "ABALAAPAAA",
        "level": 3,
        "pos": "131898.83163648896,-20554.28256744071",
        "weight": "4.528131334498924"
      }
    },
    {
      "type": "Feature",
      "id": "643",
      "geometry": {
        "type": "Point",
        "coordinates": [
          70.253237,
          -12.587204
        ]
      },
      "properties": {
        "cell": "ABALAAPAAP",
        "label": "ABALAAPAAP",
        "level": 3,
        "pos": "133274.63838775744,-18215.824073913856",
        "weight": "4.528131334498924"
      }
    },
    {
      "type": "Feature",
      "id": "1315",
      "geometry": {
        "type": "Point",
        "coordinates": [
          67.806716,
          -9.791264
        ]
      },
      "properties": {
        "cell": "ABALAAPAPA",
        "label": "ABALAAPAPA",
        "level": 4,
        "pos": "128772.5548453169,-12759.329039086078",
        "weight": "0.0"
      }
    },
    {
      "type": "Feature",
      "id": "641",
      "geometry": {
        "type": "Point",
        "coordinates": [
          69.705998,
          -10.485815
        ]
      },
      "properties": {
        "cell": "ABALAAPAPP",
        "label": "ABALAAPAPP",
        "level": 3,
        "pos": "132267.61080405855,-14109.98969526867",
        "weight": "4.528131334498924"
      }
    },
    {
      "type": "Feature",
      "id": "1312",
      "geometry": {
        "type": "Point",
        "coordinates": [
          65.106711,
          -13.932843
        ]
      },
      "properties": {
        "cell": "ABALAAPPAA",
        "label": "ABALAAPPAA",
        "level": 4,
        "pos": "123803.99899498539,-20862.373857692903",
        "weight": "0.0"
      }
    },
    {
      "type": "Feature",
      "id": "638",
      "geometry": {
        "type": "Point",
        "coordinates": [
          65.76377,
          -15.525157
        ]
      },
      "properties": {
        "cell": "ABALAAPPAP",
        "label": "ABALAAPPAP",
        "level": 3,
        "pos": "125013.11688763494,-24014.18430104625",
        "weight": "4.528131334498924"
      }
    },
    {
      "type": "Feature",
      "id": "636",
      "geometry": {
        "type": "Point",
        "coordinates": [
          64.656879,
          -17.219509
        ]
      },
      "properties": {
        "cell": "ABALAAPPPA",
        "label": "ABALAAPPPA",
        "level": 3,
        "pos": "122976.22130494815,-27394.861491217798",
        "weight": "4.528131334498924"
      }
    },
    {
      "type": "Feature",
      "id": "635",
      "geometry": {
        "type": "Point",
        "coordinates": [
          63.560156,
          -18.526278
        ]
      },
      "properties": {
        "cell": "ABALAAPPPP",
        "label": "ABALAAPPPP",
        "level": 3,
        "pos": "120958.02896642881,-30023.28664410211",
        "weight": "9.04436889063331"
      }
    },
    {
      "type": "Feature",
      "id": "1335",
      "geometry": {
        "type": "Point",
        "coordinates": [
          65.587881,
          -8.044713
        ]
      },
      "properties": {
        "cell": "ABALAAAALAL",
        "label": "ABALAAAALAL",
        "level": 4,
        "pos": "124689.45084686264,-9374.898770216827",
        "weight": "0.0"
      }
    },
    {
      "type": "Feature",
      "id": "1334",
      "geometry": {
        "type": "Point",
        "coordinates": [
          66.109846,
          -7.308095
        ]
      },
      "properties": {
        "cell": "ABALAAAALAR",
        "label": "ABALAAAALAR",
        "level": 4,
        "pos": "125649.97371349101,-7952.046942407314",
        "weight": "0.0"
      }
    },
    {
      "type": "Feature",
      "id": "1333",
      "geometry": {
        "type": "Point",
        "coordinates": [
          63.544718,
          -8.324365
        ]
      },
      "properties": {
        "cell": "ABALAAAALPA",
        "label": "ABALAAAALPA",
        "level": 4,
        "pos": "120929.62074197679,-9915.739529258411",
        "weight": "0.0"
      }
    },
    {
      "type": "Feature",
      "id": "1332",
      "geometry": {
        "type": "Point",
        "coordinates": [
          62.758787,
          -7.79718
        ]
      },
      "properties": {
        "cell": "ABALAAAALPP",
        "label": "ABALAAAALPP",
        "level": 4,
        "pos": "119483.35160671675,-8896.49304055311",
        "weight": "0.0"
      }
    },
    {
      "type": "Feature",
      "id": "1331",
      "geometry": {
        "type": "Point",
        "coordinates": [
          69.083685,
          -5.451896
        ]
      },
      "properties": {
        "cell": "ABALAAAARLA",
        "label": "ABALAAAARLA",
        "level": 4,
        "pos": "131122.43484344133,-4376.473652682632",
        "weight": "0.0"
      }
    },
    {
      "type": "Feature",
      "id": "1330",
      "geometry": {
        "type": "Point",
        "coordinates": [
          68.785864,
          -6.221156
        ]
      },
      "properties": {
        "cell": "ABALAAAARLP",
        "label": "ABALAAAARLP",
        "level": 4,
        "pos": "130574.3780045153,-5856.733847690876",
        "weight": "0.0"
      }
    },
    {
      "type": "Feature",
      "id": "1329",
      "geometry": {
        "type": "Point",
        "coordinates": [
          68.199385,
          -3.529058
        ]
      },
      "properties": {
        "cell": "ABALAAAARRA",
        "label": "ABALAAAARRA",
        "level": 4,
        "pos": "129495.1436336529,-684.1215966540672",
        "weight": "0.0"
      }
    },
    {
      "type": "Feature",
      "id": "1328",
      "geometry": {
        "type": "Point",
        "coordinates": [
          68.65659,
          -4.234191
        ]
      },
      "properties": {
        "cell": "ABALAAAARRP",
        "label": "ABALAAAARRP",
        "level": 4,
        "pos": "130336.48617671366,-2037.053699084895",
        "weight": "0.0"
      }
    },
    {
      "type": "Feature",
      "id": "1327",
      "geometry": {
        "type": "Point",
        "coordinates": [
          66.41303,
          1.273111
        ]
      },
      "properties": {
        "cell": "ABALAAAPALL",
        "label": "ABALAAAPALL",
        "level": 4,
        "pos": "126207.88695921154,8513.026248018283",
        "weight": "0.0"
      }
    },
    {
      "type": "Feature",
      "id": "1326",
      "geometry": {
        "type": "Point",
        "coordinates": [
          66.898331,
          0.647001
        ]
      },
      "properties": {
        "cell": "ABALAAAPALR",
        "label": "ABALAAAPALR",
        "level": 4,
        "pos": "127100.93633029741,7314.312502344493",
        "weight": "0.0"
      }
    },
    {
      "type": "Feature",
      "id": "1325",
      "geometry": {
        "type": "Point",
        "coordinates": [
          64.731665,
          1.306739
        ]
      },
      "properties": {
        "cell": "ABALAAAPARL",
        "label": "ABALAAAPARL",
        "level": 4,
        "pos": "123113.83881387045,8577.420102392618",
        "weight": "0.0"
      }
    },
    {
      "type": "Feature",
      "id": "1324",
      "geometry": {
        "type": "Point",
        "coordinates": [
          63.826877,
          1.266149
        ]
      },
      "properties": {
        "cell": "ABALAAAPARR",
        "label": "ABALAAAPARR",
        "level": 4,
        "pos": "121448.84687107646,8499.695468901602",
        "weight": "0.0"
      }
    },
    {
      "type": "Feature",
      "id": "1323",
      "geometry": {
        "type": "Point",
        "coordinates": [
          70.278636,
          -0.976868
        ]
      },
      "properties": {
        "cell": "ABALAAAPPLL",
        "label": "ABALAAAPPLL",
        "level": 4,
        "pos": "133321.38216724852,4205.655044022327",
        "weight": "0.0"
      }
    },
    {
      "type": "Feature",
      "id": "1322",
      "geometry": {
        "type": "Point",
        "coordinates": [
          70.416486,
          -1.776568
        ]
      },
      "properties": {
        "cell": "ABALAAAPPLR",
        "label": "ABALAAAPPLR",
        "level": 4,
        "pos": "133575.0504695368,2674.360630483695",
        "weight": "0.0"
      }
    },
    {
      "type": "Feature",
      "id": "1321",
      "geometry": {
        "type": "Point",
        "coordinates": [
          69.351966,
          1.000978
        ]
      },
      "properties": {
        "cell": "ABALAAAPPRL",
        "label": "ABALAAAPPRL",
        "level": 4,
        "pos": "131616.12459016524,7991.993252549506",
        "weight": "0.0"
      }
    },
    {
      "type": "Feature",
      "id": "1320",
      "geometry": {
        "type": "Point",
        "coordinates": [
          70.028495,
          0.401671
        ]
      },
      "properties": {
        "cell": "ABALAAAPPRR",
        "label": "ABALAAAPPRR",
        "level": 4,
        "pos": "132861.06965222105,6844.661196479234",
        "weight": "0.0"
      }
    },
    {
      "type": "Feature",
      "id": "1319",
      "geometry": {
        "type": "Point",
        "coordinates": [
          70.259427,
          -14.843698
        ]
      },
      "properties": {
        "cell": "ABALAAPAAAL",
        "label": "ABALAAPAAAL",
        "level": 4,
        "pos": "133286.03232504264,-22662.475433681255",
        "weight": "0.0"
      }
    },
    {
      "type": "Feature",
      "id": "1318",
      "geometry": {
        "type": "Point",
        "coordinates": [
          70.867436,
          -14.223826
        ]
      },
      "properties": {
        "cell": "ABALAAPAAAR",
        "label": "ABALAAPAAAR",
        "level": 4,
        "pos": "134404.88525612207,-21436.642940061545",
        "weight": "0.0"
      }
    },
    {
      "type": "Feature",
      "id": "1317",
      "geometry": {
        "type": "Point",
        "coordinates": [
          71.619724,
          -12.275981
        ]
      },
      "properties": {
        "cell": "ABALAAPAAPA",
        "label": "ABALAAPAAPA",
        "level": 4,
        "pos": "135789.25058846248,-17605.753518757356",
        "weight": "0.0"
      }
    },
    {
      "type": "Feature",
      "id": "1316",
      "geometry": {
        "type": "Point",
        "coordinates": [
          71.54852,
          -13.051152
        ]
      },
      "properties": {
        "cell": "ABALAAPAAPP",
        "label": "ABALAAPAAPP",
        "level": 4,
        "pos": "135658.21552121776,-19126.646209256294",
        "weight": "0.0"
      }
    },
    {
      "type": "Feature",
      "id": "1314",
      "geometry": {
        "type": "Point",
        "coordinates": [
          70.860166,
          -9.854561
        ]
      },
      "properties": {
        "cell": "ABALAAPAPPA",
        "label": "ABALAAPAPPA",
        "level": 4,
        "pos": "134391.51095891083,-12882.29854933732",
        "weight": "0.0"
      }
    },
    {
      "type": "Feature",
      "id": "1313",
      "geometry": {
        "type": "Point",
        "coordinates": [
          70.953068,
          -10.639573
        ]
      },
      "properties": {
        "cell": "ABALAAPAPPP",
        "label": "ABALAAPAPPP",
        "level": 4,
        "pos": "134562.473131203,-14409.39846891047",
        "weight": "0.0"
      }
    },
    {
      "type": "Feature",
      "id": "1311",
      "geometry": {
        "type": "Point",
        "coordinates": [
          66.648537,
          -16.498973
        ]
      },
      "properties": {
        "cell": "ABALAAPPAPA",
        "label": "ABALAAPPAPA",
        "level": 4,
        "pos": "126641.26620364202,-25953.596694181208",
        "weight": "0.0"
      }
    },
    {
      "type": "Feature",
      "id": "1310",
      "geometry": {
        "type": "Point",
        "coordinates": [
          67.072633,
          -15.830135
        ]
      },
      "properties": {
        "cell": "ABALAAPPAPP",
        "label": "ABALAAPPAPP",
        "level": 4,
        "pos": "127421.6886508691,-24620.546392170385",
        "weight": "0.0"
      }
    },
    {
      "type": "Feature",
      "id": "1309",
      "geometry": {
        "type": "Point",
        "coordinates": [
          65.851912,
          -17.760287
        ]
      },
      "properties": {
        "cell": "ABALAAPPPAA",
        "label": "ABALAAPPPAA",
        "level": 4,
        "pos": "125175.31740966812,-28480.241703978914",
        "weight": "0.0"
      }
    },
    {
      "type": "Feature",
      "id": "1308",
      "geometry": {
        "type": "Point",
        "coordinates": [
          65.313292,
          -18.292258
        ]
      },
      "properties": {
        "cell": "ABALAAPPPAP",
        "label": "ABALAAPPPAP",
        "level": 4,
        "pos": "124184.14592291781,-29551.15487029819",
        "weight": "0.0"
      }
    },
    {
      "type": "Feature",
      "id": "634",
      "geometry": {
        "type": "Point",
        "coordinates": [
          64.044511,
          -20.292196
        ]
      },
      "properties": {
        "cell": "ABALAAPPPPA",
        "label": "ABALAAPPPPA",
        "level": 3,
        "pos": "121849.33775251925,-33607.60606097",
        "weight": "4.528131334498924"
      }
    },
    {
      "type": "Feature",
      "id": "1305",
      "geometry": {
        "type": "Point",
        "coordinates": [
          64.563998,
          -19.015141
        ]
      },
      "properties": {
        "cell": "ABALAAPPPPP",
        "label": "ABALAAPPPPP",
        "level": 4,
        "pos": "122805.29695206488,-31011.684838802466",
        "weight": "0.0"
      }
    },
    {
      "type": "Feature",
      "id": "1307",
      "geometry": {
        "type": "Point",
        "coordinates": [
          65.020416,
          -20.948698
        ]
      },
      "properties": {
        "cell": "ABALAAPPPPAA",
        "label": "ABALAAPPPPAA",
        "level": 4,
        "pos": "123645.20027815345,-34950.36726293382",
        "weight": "0.0"
      }
    },
    {
      "type": "Feature",
      "id": "1306",
      "geometry": {
        "type": "Point",
        "coordinates": [
          64.369672,
          -21.385539
        ]
      },
      "properties": {
        "cell": "ABALAAPPPPAP",
        "label": "ABALAAPPPPAP",
        "level": 4,
        "pos": "122447.69612701476,-35847.106932635805",
        "weight": "0.0"
      }
    },
    {
      "type": "Feature",
      "id": "629",
      "geometry": {
        "type": "Point",
        "coordinates": [
          48.686407,
          2.618087
        ]
      },
      "properties": {
        "cell": "ABALAPAAAA",
        "label": "ABALAPAAAA",
        "level": 3,
        "pos": "93587.34702153732,11089.229973701908",
        "weight": "4.528131334498924"
      }
    },
    {
      "type": "Feature",
      "id": "628",
      "geometry": {
        "type": "Point",
        "coordinates": [
          50.72925,
          2.922274
        ]
      },
      "properties": {
        "cell": "ABALAPAAAP",
        "label": "ABALAPAAAP",
        "level": 3,
        "pos": "97346.5941212092,11672.20613457286",
        "weight": "4.528131334498924"
      }
    },
    {
      "type": "Feature",
      "id": "626",
      "geometry": {
        "type": "Point",
        "coordinates": [
          45.868209,
          6.316291
        ]
      },
      "properties": {
        "cell": "ABALAPAAPA",
        "label": "ABALAPAAPA",
        "level": 3,
        "pos": "88401.3033039274,18191.42558446129",
        "weight": "4.528131334498924"
      }
    },
    {
      "type": "Feature",
      "id": "625",
      "geometry": {
        "type": "Point",
        "coordinates": [
          48.049667,
          5.711421
        ]
      },
      "properties": {
        "cell": "ABALAPAAPP",
        "label": "ABALAPAAPP",
        "level": 3,
        "pos": "92415.61526687162,17027.12625858903",
        "weight": "9.04436889063331"
      }
    },
    {
      "type": "Feature",
      "id": "1295",
      "geometry": {
        "type": "Point",
        "coordinates": [
          44.216139,
          0.866632
        ]
      },
      "properties": {
        "cell": "ABALAPAPAA",
        "label": "ABALAPAPAA",
        "level": 4,
        "pos": "85361.15822801541,7734.781654670502",
        "weight": "0.0"
      }
    },
    {
      "type": "Feature",
      "id": "621",
      "geometry": {
        "type": "Point",
        "coordinates": [
          42.824003,
          -0.179851
        ]
      },
      "properties": {
        "cell": "ABALAPAPAP",
        "label": "ABALAPAPAP",
        "level": 3,
        "pos": "82799.34968851229,5731.457765658181",
        "weight": "9.04436889063331"
      }
    },
    {
      "type": "Feature",
      "id": "618",
      "geometry": {
        "type": "Point",
        "coordinates": [
          40.268786,
          4.576694
        ]
      },
      "properties": {
        "cell": "ABALAPAPPA",
        "label": "ABALAPAPPA",
        "level": 3,
        "pos": "78097.24303058219,14846.130341283555",
        "weight": "9.04436889063331"
      }
    },
    {
      "type": "Feature",
      "id": "616",
      "geometry": {
        "type": "Point",
        "coordinates": [
          41.999609,
          4.720327
        ]
      },
      "properties": {
        "cell": "ABALAPAPPP",
        "label": "ABALAPAPPP",
        "level": 3,
        "pos": "81282.29813970276,15121.98734103502",
        "weight": "4.528131334498924"
      }
    },
    {
      "type": "Feature",
      "id": "1286",
      "geometry": {
        "type": "Point",
        "coordinates": [
          52.570403,
          8.396815
        ]
      },
      "properties": {
        "cell": "ABALAPPAAA",
        "label": "ABALAPPAAA",
        "level": 4,
        "pos": "100734.67530110653,22207.41451270242",
        "weight": "0.0"
      }
    },
    {
      "type": "Feature",
      "id": "612",
      "geometry": {
        "type": "Point",
        "coordinates": [
          52.913969,
          7.317292
        ]
      },
      "properties": {
        "cell": "ABALAPPAAP",
        "label": "ABALAPPAAP",
        "level": 3,
        "pos": "101366.91312188738,20121.290174023467",
        "weight": "4.528131334498924"
      }
    },
    {
      "type": "Feature",
      "id": "610",
      "geometry": {
        "type": "Point",
        "coordinates": [
          53.577684,
          12.066028
        ]
      },
      "properties": {
        "cell": "ABALAPPAPA",
        "label": "ABALAPPAPA",
        "level": 3,
        "pos": "102588.27719511944,29346.086990567725",
        "weight": "4.528131334498924"
      }
    },
    {
      "type": "Feature",
      "id": "609",
      "geometry": {
        "type": "Point",
        "coordinates": [
          51.4255,
          11.762316
        ]
      },
      "properties": {
        "cell": "ABALAPPAPP",
        "label": "ABALAPPAPP",
        "level": 3,
        "pos": "98627.8285056906,28751.901835544624",
        "weight": "4.528131334498924"
      }
    },
    {
      "type": "Feature",
      "id": "606",
      "geometry": {
        "type": "Point",
        "coordinates": [
          62.223047,
          6.841576
        ]
      },
      "properties": {
        "cell": "ABALAPPPAA",
        "label": "ABALAPPPAA",
        "level": 3,
        "pos": "118497.48182429899,19203.63627529425",
        "weight": "4.528131334498924"
      }
    },
    {
      "type": "Feature",
      "id": "605",
      "geometry": {
        "type": "Point",
        "coordinates": [
          63.12922,
          8.866882
        ]
      },
      "properties": {
        "cell": "ABALAPPPAP",
        "label": "ABALAPPPAP",
        "level": 3,
        "pos": "120165.02243415815,23117.562394050543",
        "weight": "9.04436889063331"
      }
    },
    {
      "type": "Feature",
      "id": "602",
      "geometry": {
        "type": "Point",
        "coordinates": [
          59.105914,
          10.73671
        ]
      },
      "properties": {
        "cell": "ABALAPPPPA",
        "label": "ABALAPPPPA",
        "level": 3,
        "pos": "112761.33012429715,26750.116630293756",
        "weight": "9.04436889063331"
      }
    },
    {
      "type": "Feature",
      "id": "600",
      "geometry": {
        "type": "Point",
        "coordinates": [
          60.058777,
          9.47879
        ]
      },
      "properties": {
        "cell": "ABALAPPPPP",
        "label": "ABALAPPPPP",
        "level": 3,
        "pos": "114514.79361527028,24304.098875580512",
        "weight": "4.528131334498924"
      }
    },
    {
      "type": "Feature",
      "id": "1304",
      "geometry": {
        "type": "Point",
        "coordinates": [
          49.348134,
          2.596425
        ]
      },
      "properties": {
        "cell": "ABALAPAAAAA",
        "label": "ABALAPAAAAA",
        "level": 4,
        "pos": "94805.05772817349,11047.719644604858",
        "weight": "0.0"
      }
    },
    {
      "type": "Feature",
      "id": "1303",
      "geometry": {
        "type": "Point",
        "coordinates": [
          48.119154,
          2.687893
        ]
      },
      "properties": {
        "cell": "ABALAPAAAAP",
        "label": "ABALAPAAAAP",
        "level": 4,
        "pos": "92543.4900326809,11222.999816143962",
        "weight": "0.0"
      }
    },
    {
      "type": "Feature",
      "id": "1302",
      "geometry": {
        "type": "Point",
        "coordinates": [
          51.518354,
          2.003157
        ]
      },
      "properties": {
        "cell": "ABALAPAAAPA",
        "label": "neuron",
        "level": 1,
        "pos": "98798.70414757452,9911.121953835933",
        "weight": "1000.0"
      }
    },
    {
      "type": "Feature",
      "id": "1301",
      "geometry": {
        "type": "Point",
        "coordinates": [
          51.570571,
          3.083331
        ]
      },
      "properties": {
        "cell": "ABALAPAAAPP",
        "label": "ABALAPAAAPP",
        "level": 4,
        "pos": "98894.7903400177,11980.939475356077",
        "weight": "0.0"
      }
    },
    {
      "type": "Feature",
      "id": "1300",
      "geometry": {
        "type": "Point",
        "coordinates": [
          45.784647,
          7.308442
        ]
      },
      "properties": {
        "cell": "ABALAPAAPAA",
        "label": "ABALAPAAPAA",
        "level": 4,
        "pos": "88247.53321182367,20104.20986850153",
        "weight": "0.0"
      }
    },
    {
      "type": "Feature",
      "id": "1299",
      "geometry": {
        "type": "Point",
        "coordinates": [
          44.993837,
          6.81835
        ]
      },
      "properties": {
        "cell": "ABALAPAAPAP",
        "label": "ABALAPAAPAP",
        "level": 4,
        "pos": "86792.28334483142,19158.861649574163",
        "weight": "0.0"
      }
    },
    {
      "type": "Feature",
      "id": "624",
      "geometry": {
        "type": "Point",
        "coordinates": [
          49.44001,
          5.602425
        ]
      },
      "properties": {
        "cell": "ABALAPAAPPA",
        "label": "ABALAPAAPPA",
        "level": 3,
        "pos": "94974.12619434284,16817.46220574513",
        "weight": "4.528131334498924"
      }
    },
    {
      "type": "Feature",
      "id": "1296",
      "geometry": {
        "type": "Point",
        "coordinates": [
          48.158666,
          6.632278
        ]
      },
      "properties": {
        "cell": "ABALAPAAPPP",
        "label": "ABALAPAAPPP",
        "level": 4,
        "pos": "92616.19671670874,18800.197898729395",
        "weight": "0.0"
      }
    },
    {
      "type": "Feature",
      "id": "620",
      "geometry": {
        "type": "Point",
        "coordinates": [
          42.85363,
          -1.562552
        ]
      },
      "properties": {
        "cell": "ABALAPAPAPA",
        "label": "ABALAPAPAPA",
        "level": 3,
        "pos": "82853.86616448763,3084.2226941367053",
        "weight": "4.528131334498924"
      }
    },
    {
      "type": "Feature",
      "id": "1292",
      "geometry": {
        "type": "Point",
        "coordinates": [
          43.714346,
          -0.169372
        ]
      },
      "properties": {
        "cell": "ABALAPAPAPP",
        "label": "ABALAPAPAPP",
        "level": 4,
        "pos": "84437.75828480365,5751.51651445226",
        "weight": "0.0"
      }
    },
    {
      "type": "Feature",
      "id": "617",
      "geometry": {
        "type": "Point",
        "coordinates": [
          39.602848,
          6.096838
        ]
      },
      "properties": {
        "cell": "ABALAPAPPAA",
        "label": "ABALAPAPPAA",
        "level": 3,
        "pos": "76871.7761108323,17768.86263684603",
        "weight": "4.528131334498924"
      }
    },
    {
      "type": "Feature",
      "id": "1289",
      "geometry": {
        "type": "Point",
        "coordinates": [
          39.237192,
          5.066997
        ]
      },
      "properties": {
        "cell": "ABALAPAPPAP",
        "label": "ABALAPAPPAP",
        "level": 4,
        "pos": "76198.89759516285,15788.04394893061",
        "weight": "0.0"
      }
    },
    {
      "type": "Feature",
      "id": "1288",
      "geometry": {
        "type": "Point",
        "coordinates": [
          41.311499,
          5.399194
        ]
      },
      "properties": {
        "cell": "ABALAPAPPPA",
        "label": "ABALAPAPPPA",
        "level": 4,
        "pos": "80016.04038580284,16426.621349528028",
        "weight": "0.0"
      }
    },
    {
      "type": "Feature",
      "id": "1287",
      "geometry": {
        "type": "Point",
        "coordinates": [
          42.11389,
          5.518685
        ]
      },
      "properties": {
        "cell": "ABALAPAPPPP",
        "label": "ABALAPAPPPP",
        "level": 4,
        "pos": "81492.60356865477,16656.40265533935",
        "weight": "0.0"
      }
    },
    {
      "type": "Feature",
      "id": "1298",
      "geometry": {
        "type": "Point",
        "coordinates": [
          50.305394,
          5.944591
        ]
      },
      "properties": {
        "cell": "ABALAPAAPPAA",
        "label": "ABALAPAAPPAA",
        "level": 4,
        "pos": "96566.61478975262,17475.801049734164",
        "weight": "0.0"
      }
    },
    {
      "type": "Feature",
      "id": "1297",
      "geometry": {
        "type": "Point",
        "coordinates": [
          50.239662,
          5.029593
        ]
      },
      "properties": {
        "cell": "ABALAPAAPPAP",
        "label": "ABALAPAAPPAP",
        "level": 4,
        "pos": "96445.64791020023,15716.15535821051",
        "weight": "0.0"
      }
    },
    {
      "type": "Feature",
      "id": "1294",
      "geometry": {
        "type": "Point",
        "coordinates": [
          43.536599,
          -2.137689
        ]
      },
      "properties": {
        "cell": "ABALAPAPAPAA",
        "label": "ABALAPAPAPAA",
        "level": 4,
        "pos": "84110.67470099717,1982.6668892196597",
        "weight": "0.0"
      }
    },
    {
      "type": "Feature",
      "id": "1293",
      "geometry": {
        "type": "Point",
        "coordinates": [
          43.788995,
          -1.432364
        ]
      },
      "properties": {
        "cell": "ABALAPAPAPAP",
        "label": "ABALAPAPAPAP",
        "level": 4,
        "pos": "84575.1264471161,3333.5226905100158",
        "weight": "0.0"
      }
    },
    {
      "type": "Feature",
      "id": "1291",
      "geometry": {
        "type": "Point",
        "coordinates": [
          39.950555,
          7.11281
        ]
      },
      "properties": {
        "cell": "ABALAPAPPAAA",
        "label": "ABALAPAPPAAA",
        "level": 4,
        "pos": "77511.62997746168,19726.73270030603",
        "weight": "0.0"
      }
    },
    {
      "type": "Feature",
      "id": "1290",
      "geometry": {
        "type": "Point",
        "coordinates": [
          39.084138,
          7.238585
        ]
      },
      "properties": {
        "cell": "ABALAPAPPAAP",
        "label": "ABALAPAPPAAP",
        "level": 4,
        "pos": "75917.24945905834,19969.395328788618",
        "weight": "0.0"
      }
    },
    {
      "type": "Feature",
      "id": "1285",
      "geometry": {
        "type": "Point",
        "coordinates": [
          52.94934,
          6.612726
        ]
      },
      "properties": {
        "cell": "ABALAPPAAPA",
        "label": "ABALAPPAAPA",
        "level": 4,
        "pos": "101432.00380086985,18762.519638633978",
        "weight": "0.0"
      }
    },
    {
      "type": "Feature",
      "id": "1284",
      "geometry": {
        "type": "Point",
        "coordinates": [
          52.174142,
          6.949225
        ]
      },
      "properties": {
        "cell": "ABALAPPAAPP",
        "label": "ABALAPPAAPP",
        "level": 4,
        "pos": "100005.48163766442,19411.21294645943",
        "weight": "0.0"
      }
    },
    {
      "type": "Feature",
      "id": "1283",
      "geometry": {
        "type": "Point",
        "coordinates": [
          53.127304,
          13.042903
        ]
      },
      "properties": {
        "cell": "ABALAPPAPAA",
        "label": "ABALAPPAPAA",
        "level": 4,
        "pos": "101759.4864682003,31261.9329947023",
        "weight": "0.0"
      }
    },
    {
      "type": "Feature",
      "id": "1282",
      "geometry": {
        "type": "Point",
        "coordinates": [
          54.059577,
          13.003907
        ]
      },
      "properties": {
        "cell": "ABALAPPAPAP",
        "label": "ABALAPPAPAP",
        "level": 4,
        "pos": "103475.0551494505,31185.313916979798",
        "weight": "0.0"
      }
    },
    {
      "type": "Feature",
      "id": "1281",
      "geometry": {
        "type": "Point",
        "coordinates": [
          50.610872,
          13.328405
        ]
      },
      "properties": {
        "cell": "ABALAPPAPPA",
        "label": "neuron",
        "level": 1,
        "pos": "97128.7534048978,31823.26222353595",
        "weight": "1000.0"
      }
    },
    {
      "type": "Feature",
      "id": "1280",
      "geometry": {
        "type": "Point",
        "coordinates": [
          50.16129,
          11.968147
        ]
      },
      "properties": {
        "cell": "ABALAPPAPPP",
        "label": "ABALAPPAPPP",
        "level": 4,
        "pos": "96301.43096591467,29154.523677172434",
        "weight": "0.0"
      }
    },
    {
      "type": "Feature",
      "id": "1279",
      "geometry": {
        "type": "Point",
        "coordinates": [
          63.335099,
          7.186542
        ]
      },
      "properties": {
        "cell": "ABALAPPPAAA",
        "label": "ABALAPPPAAA",
        "level": 4,
        "pos": "120543.88448743202,19868.975791477667",
        "weight": "0.0"
      }
    },
    {
      "type": "Feature",
      "id": "1278",
      "geometry": {
        "type": "Point",
        "coordinates": [
          63.228133,
          6.424532
        ]
      },
      "properties": {
        "cell": "ABALAPPPAAP",
        "label": "ABALAPPPAAP",
        "level": 4,
        "pos": "120347.04380961282,18399.918476368544",
        "weight": "0.0"
      }
    },
    {
      "type": "Feature",
      "id": "604",
      "geometry": {
        "type": "Point",
        "coordinates": [
          65.007227,
          9.474251
        ]
      },
      "properties": {
        "cell": "ABALAPPPAPA",
        "label": "ABALAPPPAPA",
        "level": 3,
        "pos": "123620.92991064415,24295.29114870661",
        "weight": "4.528131334498924"
      }
    },
    {
      "type": "Feature",
      "id": "1275",
      "geometry": {
        "type": "Point",
        "coordinates": [
          63.417922,
          10.015751
        ]
      },
      "properties": {
        "cell": "ABALAPPPAPP",
        "label": "ABALAPPPAPP",
        "level": 4,
        "pos": "120696.29391846698,25347.05443858155",
        "weight": "0.0"
      }
    },
    {
      "type": "Feature",
      "id": "601",
      "geometry": {
        "type": "Point",
        "coordinates": [
          59.982329,
          12.239758
        ]
      },
      "properties": {
        "cell": "ABALAPPPPAA",
        "label": "ABALAPPPPAA",
        "level": 3,
        "pos": "114374.10834582828,29686.275326136576",
        "weight": "4.528131334498924"
      }
    },
    {
      "type": "Feature",
      "id": "1272",
      "geometry": {
        "type": "Point",
        "coordinates": [
          58.444958,
          11.529931
        ]
      },
      "properties": {
        "cell": "ABALAPPPPAP",
        "label": "ABALAPPPPAP",
        "level": 4,
        "pos": "111545.04235015137,28297.697804342377",
        "weight": "0.0"
      }
    },
    {
      "type": "Feature",
      "id": "1271",
      "geometry": {
        "type": "Point",
        "coordinates": [
          61.118787,
          9.764525
        ]
      },
      "properties": {
        "cell": "ABALAPPPPPA",
        "label": "ABALAPPPPPA",
        "level": 4,
        "pos": "116465.4167005578,24858.879672312614",
        "weight": "0.0"
      }
    },
    {
      "type": "Feature",
      "id": "1270",
      "geometry": {
        "type": "Point",
        "coordinates": [
          60.607152,
          10.344647
        ]
      },
      "properties": {
        "cell": "ABALAPPPPPP",
        "label": "ABALAPPPPPP",
        "level": 4,
        "pos": "115523.90572505452,25986.721567214932",
        "weight": "0.0"
      }
    },
    {
      "type": "Feature",
      "id": "1277",
      "geometry": {
        "type": "Point",
        "coordinates": [
          66.230713,
          9.527391
        ]
      },
      "properties": {
        "cell": "ABALAPPPAPAA",
        "label": "ABALAPPPAPAA",
        "level": 4,
        "pos": "125872.3896230115,24398.434961071496",
        "weight": "0.0"
      }
    },
    {
      "type": "Feature",
      "id": "1276",
      "geometry": {
        "type": "Point",
        "coordinates": [
          65.89281,
          10.285137
        ]
      },
      "properties": {
        "cell": "ABALAPPPAPAP",
        "label": "ABALAPPPAPAP",
        "level": 4,
        "pos": "125250.5750150372,25870.93039781348",
        "weight": "0.0"
      }
    },
    {
      "type": "Feature",
      "id": "1274",
      "geometry": {
        "type": "Point",
        "coordinates": [
          60.318879,
          13.32381
        ]
      },
      "properties": {
        "cell": "ABALAPPPPAAA",
        "label": "ABALAPPPPAAA",
        "level": 4,
        "pos": "114993.4329422742,31814.2237058724",
        "weight": "0.0"
      }
    },
    {
      "type": "Feature",
      "id": "1273",
      "geometry": {
        "type": "Point",
        "coordinates": [
          60.954886,
          12.786166
        ]
      },
      "properties": {
        "cell": "ABALAPPPPAAP",
        "label": "ABALAPPPPAAP",
        "level": 4,
        "pos": "116163.80569970161,30757.706286709246",
        "weight": "0.0"
      }
    },
    {
      "type": "Feature",
      "id": "595",
      "geometry": {
        "type": "Point",
        "coordinates": [
          13.862555,
          -4.980738
        ]
      },
      "properties": {
        "cell": "ABALPAAAA",
        "label": "ABALPAAAA",
        "level": 3,
        "pos": "29504.483521001814,-3470.7865155615136",
        "weight": "13.55381000198796"
      }
    },
    {
      "type": "Feature",
      "id": "592",
      "geometry": {
        "type": "Point",
        "coordinates": [
          13.434922,
          -2.430428
        ]
      },
      "properties": {
        "cell": "ABALPAAAP",
        "label": "ABALPAAAP",
        "level": 3,
        "pos": "28717.547918972312,1421.835698025888",
        "weight": "13.55381000198796"
      }
    },
    {
      "type": "Feature",
      "id": "588",
      "geometry": {
        "type": "Point",
        "coordinates": [
          17.937926,
          0.207188
        ]
      },
      "properties": {
        "cell": "ABALPAAPA",
        "label": "ABALPAAPA",
        "level": 3,
        "pos": "37003.9765163999,6472.364682478836",
        "weight": "13.55381000198796"
      }
    },
    {
      "type": "Feature",
      "id": "585",
      "geometry": {
        "type": "Point",
        "coordinates": [
          21.111357,
          -0.787048
        ]
      },
      "properties": {
        "cell": "ABALPAAPP",
        "label": "ABALPAAPP",
        "level": 3,
        "pos": "42843.72669441399,4569.073152550015",
        "weight": "13.55381000198796"
      }
    },
    {
      "type": "Feature",
      "id": "580",
      "geometry": {
        "type": "Point",
        "coordinates": [
          21.150005,
          -9.836773
        ]
      },
      "properties": {
        "cell": "ABALPAPAA",
        "label": "ABALPAPAA",
        "level": 3,
        "pos": "42914.84523119455,-12847.739842966039",
        "weight": "13.55381000198796"
      }
    },
    {
      "type": "Feature",
      "id": "577",
      "geometry": {
        "type": "Point",
        "coordinates": [
          22.276078,
          -11.903386
        ]
      },
      "properties": {
        "cell": "ABALPAPAP",
        "label": "ABALPAPAP",
        "level": 3,
        "pos": "44987.054229989444,-16876.320512804123",
        "weight": "18.049658223783137"
      }
    },
    {
      "type": "Feature",
      "id": "572",
      "geometry": {
        "type": "Point",
        "coordinates": [
          15.057414,
          -10.767314
        ]
      },
      "properties": {
        "cell": "ABALPAPPA",
        "label": "ABALPAPPA",
        "level": 3,
        "pos": "31703.261709506372,-14658.262615412288",
        "weight": "18.049658223783137"
      }
    },
    {
      "type": "Feature",
      "id": "568",
      "geometry": {
        "type": "Point",
        "coordinates": [
          14.890171,
          -8.493732
        ]
      },
      "properties": {
        "cell": "ABALPAPPP",
        "label": "ABALPAPPP",
        "level": 3,
        "pos": "31395.504485187015,-10243.484164195754",
        "weight": "13.55381000198796"
      }
    },
    {
      "type": "Feature",
      "id": "562",
      "geometry": {
        "type": "Point",
        "coordinates": [
          34.354458,
          -12.439748
        ]
      },
      "properties": {
        "cell": "ABALPPAAA",
        "label": "ABALPPAAA",
        "level": 3,
        "pos": "67213.68787926203,-17926.678573272966",
        "weight": "9.04436889063331"
      }
    },
    {
      "type": "Feature",
      "id": "560",
      "geometry": {
        "type": "Point",
        "coordinates": [
          32.608599,
          -12.629088
        ]
      },
      "properties": {
        "cell": "ABALPPAAP",
        "label": "ABALPPAAP",
        "level": 3,
        "pos": "64000.95961370232,-18297.979438799874",
        "weight": "9.04436889063331"
      }
    },
    {
      "type": "Feature",
      "id": "557",
      "geometry": {
        "type": "Point",
        "coordinates": [
          32.319147,
          -16.481521
        ]
      },
      "properties": {
        "cell": "ABALPPAPA",
        "label": "ABALPPAPA",
        "level": 3,
        "pos": "63468.31256740352,-25918.75696947126",
        "weight": "13.55381000198796"
      }
    },
    {
      "type": "Feature",
      "id": "554",
      "geometry": {
        "type": "Point",
        "coordinates": [
          32.144101,
          -18.977221
        ]
      },
      "properties": {
        "cell": "ABALPPAPP",
        "label": "ABALPPAPP",
        "level": 3,
        "pos": "63146.193087170446,-30934.91127042377",
        "weight": "18.049658223783137"
      }
    },
    {
      "type": "Feature",
      "id": "548",
      "geometry": {
        "type": "Point",
        "coordinates": [
          39.95475,
          -20.69418
        ]
      },
      "properties": {
        "cell": "ABALPPPAA",
        "label": "ABALPPPAA",
        "level": 3,
        "pos": "77519.35361132659,-34429.1122376596",
        "weight": "13.55381000198796"
      }
    },
    {
      "type": "Feature",
      "id": "545",
      "geometry": {
        "type": "Point",
        "coordinates": [
          42.280643,
          -22.157735
        ]
      },
      "properties": {
        "cell": "ABALPPPAP",
        "label": "ABALPPPAP",
        "level": 3,
        "pos": "81799.46280200424,-37438.85695461652",
        "weight": "18.049658223783137"
      }
    },
    {
      "type": "Feature",
      "id": "540",
      "geometry": {
        "type": "Point",
        "coordinates": [
          46.171649,
          -19.070254
        ]
      },
      "properties": {
        "cell": "ABALPPPPA",
        "label": "ABALPPPPA",
        "level": 3,
        "pos": "88959.6905626778,-31123.29413731184",
        "weight": "18.049658223783137"
      }
    },
    {
      "type": "Feature",
      "id": "536",
      "geometry": {
        "type": "Point",
        "coordinates": [
          46.123203,
          -21.38374
        ]
      },
      "properties": {
        "cell": "ABALPPPPP",
        "label": "ABALPPPPP",
        "level": 3,
        "pos": "88870.54471026282,-35843.40967276248",
        "weight": "22.531913556018846"
      }
    },
    {
      "type": "Feature",
      "id": "594",
      "geometry": {
        "type": "Point",
        "coordinates": [
          11.606192,
          -6.293071
        ]
      },
      "properties": {
        "cell": "ABALPAAAAA",
        "label": "ABALPAAAAA",
        "level": 3,
        "pos": "25352.324538652905,-5995.218387724417",
        "weight": "4.528131334498924"
      }
    },
    {
      "type": "Feature",
      "id": "593",
      "geometry": {
        "type": "Point",
        "coordinates": [
          11.822674,
          -4.534134
        ]
      },
      "properties": {
        "cell": "ABALPAAAAP",
        "label": "ABALPAAAAP",
        "level": 3,
        "pos": "25750.68652398098,-2612.9105616413626",
        "weight": "4.528131334498924"
      }
    },
    {
      "type": "Feature",
      "id": "591",
      "geometry": {
        "type": "Point",
        "coordinates": [
          11.095318,
          -2.396827
        ]
      },
      "properties": {
        "cell": "ABALPAAAPA",
        "label": "ABALPAAAPA",
        "level": 3,
        "pos": "24412.212796670712,1486.2151407158472",
        "weight": "4.528131334498924"
      }
    },
    {
      "type": "Feature",
      "id": "590",
      "geometry": {
        "type": "Point",
        "coordinates": [
          11.792574,
          -1.060145
        ]
      },
      "properties": {
        "cell": "ABALPAAAPP",
        "label": "ABALPAAAPP",
        "level": 3,
        "pos": "25695.298623344202,4046.2184572238666",
        "weight": "4.528131334498924"
      }
    },
    {
      "type": "Feature",
      "id": "587",
      "geometry": {
        "type": "Point",
        "coordinates": [
          16.373993,
          0.021332
        ]
      },
      "properties": {
        "cell": "ABALPAAPAA",
        "label": "ABALPAAPAA",
        "level": 3,
        "pos": "34126.03201668681,6116.583954861281",
        "weight": "4.528131334498924"
      }
    },
    {
      "type": "Feature",
      "id": "586",
      "geometry": {
        "type": "Point",
        "coordinates": [
          16.201093,
          1.767159
        ]
      },
      "properties": {
        "cell": "ABALPAAPAP",
        "label": "ABALPAAPAP",
        "level": 3,
        "pos": "33807.85933558093,9459.113058897176",
        "weight": "4.528131334498924"
      }
    },
    {
      "type": "Feature",
      "id": "584",
      "geometry": {
        "type": "Point",
        "coordinates": [
          22.493973,
          -1.071442
        ]
      },
      "properties": {
        "cell": "ABALPAAPPA",
        "label": "ABALPAAPPA",
        "level": 3,
        "pos": "45388.01681437253,4024.5929500810166",
        "weight": "4.528131334498924"
      }
    },
    {
      "type": "Feature",
      "id": "583",
      "geometry": {
        "type": "Point",
        "coordinates": [
          21.01177,
          0.48885
        ]
      },
      "properties": {
        "cell": "ABALPAAPPP",
        "label": "ABALPAAPPP",
        "level": 3,
        "pos": "42660.467260653575,7011.547482853439",
        "weight": "4.528131334498924"
      }
    },
    {
      "type": "Feature",
      "id": "579",
      "geometry": {
        "type": "Point",
        "coordinates": [
          20.629649,
          -10.806037
        ]
      },
      "properties": {
        "cell": "ABALPAPAAA",
        "label": "ABALPAPAAA",
        "level": 3,
        "pos": "41957.28564856343,-14733.7231543985",
        "weight": "4.528131334498924"
      }
    },
    {
      "type": "Feature",
      "id": "578",
      "geometry": {
        "type": "Point",
        "coordinates": [
          19.935252,
          -9.554803
        ]
      },
      "properties": {
        "cell": "ABALPAPAAP",
        "label": "ABALPAPAAP",
        "level": 3,
        "pos": "40679.457826764534,-12300.146589906377",
        "weight": "4.528131334498924"
      }
    },
    {
      "type": "Feature",
      "id": "576",
      "geometry": {
        "type": "Point",
        "coordinates": [
          21.095772,
          -13.585376
        ]
      },
      "properties": {
        "cell": "ABALPAPAPA",
        "label": "ABALPAPAPA",
        "level": 3,
        "pos": "42815.04870559194,-20177.574862032354",
        "weight": "9.04436889063331"
      }
    },
    {
      "type": "Feature",
      "id": "574",
      "geometry": {
        "type": "Point",
        "coordinates": [
          23.248771,
          -12.727655
        ]
      },
      "properties": {
        "cell": "ABALPAPAPP",
        "label": "ABALPAPAPP",
        "level": 3,
        "pos": "46776.99610328813,-18491.37504499612",
        "weight": "4.528131334498924"
      }
    },
    {
      "type": "Feature",
      "id": "571",
      "geometry": {
        "type": "Point",
        "coordinates": [
          11.878798,
          -11.905216
        ]
      },
      "properties": {
        "cell": "ABALPAPPAA",
        "label": "ABALPAPPAA",
        "level": 3,
        "pos": "25853.97312044337,-16879.904180600286",
        "weight": "9.04436889063331"
      }
    },
    {
      "type": "Feature",
      "id": "569",
      "geometry": {
        "type": "Point",
        "coordinates": [
          14.99066,
          -12.515358
        ]
      },
      "properties": {
        "cell": "ABALPAPPAP",
        "label": "ABALPAPPAP",
        "level": 3,
        "pos": "31580.42379259855,-18074.923960916258",
        "weight": "4.528131334498924"
      }
    },
    {
      "type": "Feature",
      "id": "567",
      "geometry": {
        "type": "Point",
        "coordinates": [
          12.747752,
          -9.533805
        ]
      },
      "properties": {
        "cell": "ABALPAPPPA",
        "label": "ABALPAPPPA",
        "level": 3,
        "pos": "27453.017997657516,-12259.387649394432",
        "weight": "4.528131334498924"
      }
    },
    {
      "type": "Feature",
      "id": "566",
      "geometry": {
        "type": "Point",
        "coordinates": [
          13.336601,
          -7.800058
        ]
      },
      "properties": {
        "cell": "ABALPAPPPP",
        "label": "ABALPAPPPP",
        "level": 3,
        "pos": "28536.617687805498,-8902.048217515687",
        "weight": "4.528131334498924"
      }
    },
    {
      "type": "Feature",
      "id": "1269",
      "geometry": {
        "type": "Point",
        "coordinates": [
          9.963507,
          -7.667853
        ]
      },
      "properties": {
        "cell": "ABALPAAAAAA",
        "label": "epithelium",
        "level": 1,
        "pos": "22329.449700124693,-8646.653685243778",
        "weight": "1000.0"
      }
    },
    {
      "type": "Feature",
      "id": "1268",
      "geometry": {
        "type": "Point",
        "coordinates": [
          9.427456,
          -6.545926
        ]
      },
      "properties": {
        "cell": "ABALPAAAAAP",
        "label": "muscle",
        "level": 1,
        "pos": "21343.007340412423,-6482.308571465077",
        "weight": "1000.0"
      }
    },
    {
      "type": "Feature",
      "id": "1267",
      "geometry": {
        "type": "Point",
        "coordinates": [
          10.012637,
          -4.385323
        ]
      },
      "properties": {
        "cell": "ABALPAAAAPA",
        "label": "muscle",
        "level": 1,
        "pos": "22419.858953457315,-2327.1777747916067",
        "weight": "1000.0"
      }
    },
    {
      "type": "Feature",
      "id": "1266",
      "geometry": {
        "type": "Point",
        "coordinates": [
          10.763121,
          -5.186811
        ]
      },
      "properties": {
        "cell": "ABALPAAAAPP",
        "label": "ABALPAAAAPP",
        "level": 4,
        "pos": "23800.896905004727,-3866.8348677384997",
        "weight": "0.0"
      }
    },
    {
      "type": "Feature",
      "id": "1265",
      "geometry": {
        "type": "Point",
        "coordinates": [
          9.156823,
          -2.37074
        ]
      },
      "properties": {
        "cell": "ABALPAAAPAA",
        "label": "muscle",
        "level": 1,
        "pos": "20844.98695081195,1536.2024008834178",
        "weight": "1000.0"
      }
    },
    {
      "type": "Feature",
      "id": "1264",
      "geometry": {
        "type": "Point",
        "coordinates": [
          10.447552,
          -3.420496
        ]
      },
      "properties": {
        "cell": "ABALPAAAPAP",
        "label": "ABALPAAAPAP",
        "level": 4,
        "pos": "23220.192810985227,-475.9226908412421",
        "weight": "0.0"
      }
    },
    {
      "type": "Feature",
      "id": "1263",
      "geometry": {
        "type": "Point",
        "coordinates": [
          10.640188,
          -0.897381
        ]
      },
      "properties": {
        "cell": "ABALPAAAPPA",
        "label": "ABALPAAAPPA",
        "level": 4,
        "pos": "23574.679627916154,4357.839202395656",
        "weight": "0.0"
      }
    },
    {
      "type": "Feature",
      "id": "1262",
      "geometry": {
        "type": "Point",
        "coordinates": [
          11.609479,
          0.205793
        ]
      },
      "properties": {
        "cell": "ABALPAAAPPP",
        "label": "neuron",
        "level": 1,
        "pos": "25358.374257021478,6469.6912876064525",
        "weight": "1000.0"
      }
    },
    {
      "type": "Feature",
      "id": "1261",
      "geometry": {
        "type": "Point",
        "coordinates": [
          15.505484,
          -0.550746
        ]
      },
      "properties": {
        "cell": "ABALPAAPAAA",
        "label": "ABALPAAPAAA",
        "level": 4,
        "pos": "32527.801656407413,5021.447458387382",
        "weight": "0.0"
      }
    },
    {
      "type": "Feature",
      "id": "1260",
      "geometry": {
        "type": "Point",
        "coordinates": [
          16.431193,
          -1.41372
        ]
      },
      "properties": {
        "cell": "ABALPAAPAAP",
        "label": "epithelium",
        "level": 1,
        "pos": "34231.28734824923,3369.2179089891306",
        "weight": "1000.0"
      }
    },
    {
      "type": "Feature",
      "id": "1259",
      "geometry": {
        "type": "Point",
        "coordinates": [
          14.519325,
          1.02748
        ]
      },
      "properties": {
        "cell": "ABALPAAPAPA",
        "label": "marginal",
        "level": 1,
        "pos": "30713.07491613522,8042.734783394159",
        "weight": "1000.0"
      }
    },
    {
      "type": "Feature",
      "id": "1258",
      "geometry": {
        "type": "Point",
        "coordinates": [
          14.405822,
          2.069505
        ]
      },
      "properties": {
        "cell": "ABALPAAPAPP",
        "label": "muscle",
        "level": 1,
        "pos": "30504.20423272485,10038.206516871796",
        "weight": "1000.0"
      }
    },
    {
      "type": "Feature",
      "id": "1257",
      "geometry": {
        "type": "Point",
        "coordinates": [
          23.434849,
          -1.537669
        ]
      },
      "properties": {
        "cell": "ABALPAAPPAA",
        "label": "ABALPAAPPAA",
        "level": 4,
        "pos": "47119.42329830705,3131.8666877218056",
        "weight": "0.0"
      }
    },
    {
      "type": "Feature",
      "id": "1256",
      "geometry": {
        "type": "Point",
        "coordinates": [
          22.865965,
          -1.988074
        ]
      },
      "properties": {
        "cell": "ABALPAAPPAP",
        "label": "ABALPAAPPAP",
        "level": 4,
        "pos": "46072.561534871085,2269.2642014900075",
        "weight": "0.0"
      }
    },
    {
      "type": "Feature",
      "id": "1255",
      "geometry": {
        "type": "Point",
        "coordinates": [
          21.796402,
          0.162278
        ]
      },
      "properties": {
        "cell": "ABALPAAPPPA",
        "label": "ABALPAAPPPA",
        "level": 4,
        "pos": "44104.35375163117,6386.393273518312",
        "weight": "0.0"
      }
    },
    {
      "type": "Feature",
      "id": "1254",
      "geometry": {
        "type": "Point",
        "coordinates": [
          21.25589,
          1.152345
        ]
      },
      "properties": {
        "cell": "ABALPAAPPPP",
        "label": "ABALPAAPPPP",
        "level": 4,
        "pos": "43109.70304494574,8281.80046951535",
        "weight": "0.0"
      }
    },
    {
      "type": "Feature",
      "id": "1253",
      "geometry": {
        "type": "Point",
        "coordinates": [
          20.835942,
          -11.550685
        ]
      },
      "properties": {
        "cell": "ABALPAPAAAA",
        "label": "ABALPAPAAAA",
        "level": 4,
        "pos": "42336.91434682159,-16186.76009341718",
        "weight": "0.0"
      }
    },
    {
      "type": "Feature",
      "id": "1252",
      "geometry": {
        "type": "Point",
        "coordinates": [
          19.808804,
          -11.42406
        ]
      },
      "properties": {
        "cell": "ABALPAPAAAP",
        "label": "ABALPAPAAAP",
        "level": 4,
        "pos": "40446.76523778426,-15939.40879176303",
        "weight": "0.0"
      }
    },
    {
      "type": "Feature",
      "id": "1251",
      "geometry": {
        "type": "Point",
        "coordinates": [
          18.983182,
          -9.961206
        ]
      },
      "properties": {
        "cell": "ABALPAPAAPA",
        "label": "ABALPAPAAPA",
        "level": 4,
        "pos": "38927.457573381165,-13089.543649794034",
        "weight": "0.0"
      }
    },
    {
      "type": "Feature",
      "id": "1250",
      "geometry": {
        "type": "Point",
        "coordinates": [
          19.376644,
          -10.402415
        ]
      },
      "properties": {
        "cell": "ABALPAPAAPP",
        "label": "ABALPAPAAPP",
        "level": 4,
        "pos": "39651.513725095334,-13947.649136757904",
        "weight": "0.0"
      }
    },
    {
      "type": "Feature",
      "id": "1249",
      "geometry": {
        "type": "Point",
        "coordinates": [
          21.561292,
          -14.517524
        ]
      },
      "properties": {
        "cell": "ABALPAPAPAA",
        "label": "ABALPAPAPAA",
        "level": 4,
        "pos": "43671.704633251626,-22017.021038305684",
        "weight": "0.0"
      }
    },
    {
      "type": "Feature",
      "id": "575",
      "geometry": {
        "type": "Point",
        "coordinates": [
          20.068471,
          -14.912205
        ]
      },
      "properties": {
        "cell": "ABALPAPAPAP",
        "label": "ABALPAPAPAP",
        "level": 3,
        "pos": "40924.61195505343,-22798.168883583352",
        "weight": "4.528131334498924"
      }
    },
    {
      "type": "Feature",
      "id": "1246",
      "geometry": {
        "type": "Point",
        "coordinates": [
          24.117709,
          -13.005851
        ]
      },
      "properties": {
        "cell": "ABALPAPAPPA",
        "label": "ABALPAPAPPA",
        "level": 4,
        "pos": "48376.02184777346,-19037.640641076574",
        "weight": "0.0"
      }
    },
    {
      "type": "Feature",
      "id": "1245",
      "geometry": {
        "type": "Point",
        "coordinates": [
          23.33192,
          -13.640666
        ]
      },
      "properties": {
        "cell": "ABALPAPAPPP",
        "label": "ABALPAPAPPP",
        "level": 4,
        "pos": "46930.013698012874,-20286.470946115714",
        "weight": "0.0"
      }
    },
    {
      "type": "Feature",
      "id": "1244",
      "geometry": {
        "type": "Point",
        "coordinates": [
          11.436743,
          -11.168412
        ]
      },
      "properties": {
        "cell": "ABALPAPPAAA",
        "label": "ABALPAPPAAA",
        "level": 4,
        "pos": "25040.496945176405,-15440.360885812417",
        "weight": "0.0"
      }
    },
    {
      "type": "Feature",
      "id": "570",
      "geometry": {
        "type": "Point",
        "coordinates": [
          8.978538,
          -12.030961
        ]
      },
      "properties": {
        "cell": "ABALPAPPAAP",
        "label": "ABALPAPPAAP",
        "level": 3,
        "pos": "20516.906958779953,-17125.95792592452",
        "weight": "4.528131334498924"
      }
    },
    {
      "type": "Feature",
      "id": "1241",
      "geometry": {
        "type": "Point",
        "coordinates": [
          13.961424,
          -13.764025
        ]
      },
      "properties": {
        "cell": "ABALPAPPAPA",
        "label": "epithelium",
        "level": 1,
        "pos": "29686.421036523087,-20529.53268876688",
        "weight": "1000.0"
      }
    },
    {
      "type": "Feature",
      "id": "1240",
      "geometry": {
        "type": "Point",
        "coordinates": [
          15.131525,
          -13.920898
        ]
      },
      "properties": {
        "cell": "ABALPAPPAPP",
        "label": "marginal",
        "level": 1,
        "pos": "31839.643945015898,-20838.80951786516",
        "weight": "1000.0"
      }
    },
    {
      "type": "Feature",
      "id": "1239",
      "geometry": {
        "type": "Point",
        "coordinates": [
          11.006165,
          -10.2994
        ]
      },
      "properties": {
        "cell": "ABALPAPPPAA",
        "label": "neuron",
        "level": 1,
        "pos": "24248.153894454077,-13747.185040239663",
        "weight": "1000.0"
      }
    },
    {
      "type": "Feature",
      "id": "1238",
      "geometry": {
        "type": "Point",
        "coordinates": [
          11.215272,
          -9.415769
        ]
      },
      "properties": {
        "cell": "ABALPAPPPAP",
        "label": "ABALPAPPPAP",
        "level": 4,
        "pos": "24632.948747845647,-12030.31453605963",
        "weight": "0.0"
      }
    },
    {
      "type": "Feature",
      "id": "1237",
      "geometry": {
        "type": "Point",
        "coordinates": [
          11.735558,
          -7.816029
        ]
      },
      "properties": {
        "cell": "ABALPAPPPPA",
        "label": "marginal",
        "level": 1,
        "pos": "25590.37785829221,-8932.91158006848",
        "weight": "1000.0"
      }
    },
    {
      "type": "Feature",
      "id": "1236",
      "geometry": {
        "type": "Point",
        "coordinates": [
          12.030379,
          -8.669656
        ]
      },
      "properties": {
        "cell": "ABALPAPPPPP",
        "label": "muscle",
        "level": 1,
        "pos": "26132.913955206397,-10584.062460808273",
        "weight": "1000.0"
      }
    },
    {
      "type": "Feature",
      "id": "1248",
      "geometry": {
        "type": "Point",
        "coordinates": [
          20.394604,
          -15.707755
        ]
      },
      "properties": {
        "cell": "ABALPAPAPAPA",
        "label": "ABALPAPAPAPA",
        "level": 4,
        "pos": "41524.76083672664,-24377.122597502243",
        "weight": "0.0"
      }
    },